$GNRMC,112403.40,A,1221.4950499,N,07635.7720547,E,2.44,266.47,270718,,,D*43
$GNGGA,112403.40,1221.4950499,N,07635.7720547,E,5,06,0.7,790.460,M,-88.379,M,1.4,*7E
$GPGSA,A,3,10,15,20,25,29,41,,,,,,,5.4,2.7,4.7*3B
$GLGSA,A,3,71,84,,,,,,,,,,,0.0,0.0,0.0*24
$GAGSA,A,3,07,,,,,,,,,,,,0.0,0.0,0.0*24
$GPGSV,2,1,06,10,21,253,41,15,65,075,44,20,37,279,44,25,28,206,42,1*62
$GPGSV,2,2,06,29,81,013,44,41,74,152,45,,,,,,,,,1*63
$GLGSV,1,1,02,71,51,236,44,84,49,080,42,,,,,,,,,1*70
$GAGSV,1,1,01,07,87,339,37,,,,,,,,,,,,,7*47
$GNGST,112403.40,0.000,,,,0.128,0.209,0.365*66
$GNVTG,266.47,T,,M,2.44,N,4.52,K,A*23
$GNRMC,112403.60,A,1221.4950686,N,07635.7719118,E,3.13,276.43,270718,,,D*4F
$GNGGA,112403.60,1221.4950686,N,07635.7719118,E,5,04,0.7,790.737,M,-88.379,M,1.6,*75
$GPGSA,A,3,10,15,20,25,29,41,,,,,,,5.4,2.7,4.7*3B
$GLGSA,A,3,71,,,,,,,,,,,,0.0,0.0,0.0*28
$GAGSA,A,3,07,,,,,,,,,,,,0.0,0.0,0.0*24
$GPGSV,2,1,06,10,21,253,37,15,65,075,42,20,37,279,45,25,28,206,41,1*67
$GPGSV,2,2,06,29,81,013,43,41,74,152,46,,,,,,,,,1*67
$GLGSV,1,1,01,71,51,236,44,,,,,,,,,,,,,1*4C
$GAGSV,1,1,01,07,87,339,39,,,,,,,,,,,,,7*49
$GNGST,112403.60,0.000,,,,0.128,0.210,0.364*6D
$GNVTG,276.43,T,,M,3.13,N,5.79,K,A*2D
$GNRMC,112403.80,A,1221.4951383,N,07635.7719016,E,1.48,25.04,270718,,,D*74
$GNGGA,112403.80,1221.4951383,N,07635.7719016,E,5,04,0.7,790.836,M,-88.379,M,1.8,*75
$GPGSA,A,3,10,15,20,25,29,41,,,,,,,5.4,2.7,4.7*3B
$GLGSA,A,3,71,,,,,,,,,,,,0.0,0.0,0.0*28
$GAGSA,A,3,07,,,,,,,,,,,,0.0,0.0,0.0*24
$GPGSV,2,1,06,10,21,253,35,15,65,075,35,20,37,279,38,25,28,206,39,1*60
$GPGSV,2,2,06,29,81,013,43,41,74,152,44,,,,,,,,,1*65
$GLGSV,1,1,01,71,51,236,36,,,,,,,,,,,,,1*49
$GAGSV,1,1,01,07,87,339,39,,,,,,,,,,,,,7*49
$GNGST,112403.80,0.000,,,,0.128,0.211,0.363*65
$GNVTG,25.04,T,,M,1.48,N,2.74,K,A*1C
$GNRMC,112404.00,A,1221.4951689,N,07635.7718815,E,0.96,,270718,,,D*51
$GNGGA,112404.00,1221.4951689,N,07635.7718815,E,5,04,0.7,790.821,M,-88.379,M,2.0,*72
$GPGSA,A,3,10,15,20,25,29,41,,,,,,,5.4,2.7,4.7*3B
$GLGSA,A,3,71,,,,,,,,,,,,0.0,0.0,0.0*28
$GAGSA,A,3,07,,,,,,,,,,,,0.0,0.0,0.0*24
$GPGSV,2,1,06,10,21,253,35,15,65,075,37,20,37,279,37,25,28,206,37,1*63
$GPGSV,2,2,06,29,81,013,46,41,74,152,45,,,,,,,,,1*61
$GLGSV,1,1,01,71,51,236,41,,,,,,,,,,,,,1*49
$GAGSV,1,1,01,07,87,339,41,,,,,,,,,,,,,7*46
$GNGST,112404.00,0.000,,,,0.128,0.211,0.363*6A
$GNVTG,,T,,M,0.96,N,1.78,K,A*3C
$GNRMC,112404.20,A,1221.4951647,N,07635.7718881,E,0.46,,270718,,,D*51
$GNGGA,112404.20,1221.4951647,N,07635.7718881,E,5,04,0.7,790.782,M,-88.379,M,2.2,*7B
$GPGSA,A,3,10,15,20,25,29,41,,,,,,,5.4,2.7,4.7*3B
$GLGSA,A,3,71,,,,,,,,,,,,0.0,0.0,0.0*28
$GAGSA,A,3,07,,,,,,,,,,,,0.0,0.0,0.0*24
$GPGSV,2,1,06,10,21,253,38,15,65,075,38,20,37,279,36,25,28,206,39,1*6E
$GPGSV,2,2,06,29,81,013,46,41,74,152,46,,,,,,,,,1*62
$GLGSV,1,1,01,71,51,236,42,,,,,,,,,,,,,1*4A
$GAGSV,1,1,01,07,87,339,42,,,,,,,,,,,,,7*45
$GNGST,112404.20,0.000,,,,0.128,0.211,0.363*68
$GNVTG,,T,,M,0.46,N,0.86,K,A*31
$GNRMC,112404.40,A,1221.4951575,N,07635.7718796,E,0.35,,270718,,,D*58
$GNGGA,112404.40,1221.4951575,N,07635.7718796,E,5,04,0.7,790.747,M,-88.379,M,2.4,*79
$GPGSA,A,3,10,15,20,29,41,,,,,,,,5.8,3.4,4.7*32
$GLGSA,A,3,71,,,,,,,,,,,,0.0,0.0,0.0*28
$GAGSA,A,3,07,,,,,,,,,,,,0.0,0.0,0.0*24
$GPGSV,2,1,05,10,21,253,39,15,65,075,38,20,37,279,39,29,81,013,47,1*63
$GPGSV,2,2,05,41,74,152,48,,,,,,,,,,,,,1*5D
$GLGSV,1,1,01,71,51,236,42,,,,,,,,,,,,,1*4A
$GAGSV,1,1,01,07,87,339,42,,,,,,,,,,,,,7*45
$GNGST,112404.40,0.000,,,,0.128,0.211,0.363*6E
$GNVTG,,T,,M,0.35,N,0.65,K,A*38
$GNRMC,112404.60,A,1221.4951575,N,07635.7718645,E,0.36,,270718,,,D*56
$GNGGA,112404.60,1221.4951575,N,07635.7718645,E,5,04,0.7,790.707,M,-88.379,M,2.6,*72
$GPGSA,A,3,10,15,20,25,29,41,,,,,,,5.4,2.7,4.7*3B
$GLGSA,A,3,71,,,,,,,,,,,,0.0,0.0,0.0*28
$GAGSA,A,3,07,,,,,,,,,,,,0.0,0.0,0.0*24
$GPGSV,2,1,06,10,21,253,40,15,65,075,38,20,37,279,45,25,28,206,42,1*69
$GPGSV,2,2,06,29,81,013,47,41,74,152,49,,,,,,,,,1*6C
$GLGSV,1,1,01,71,51,236,43,,,,,,,,,,,,,1*4B
$GAGSV,1,1,01,07,87,339,43,,,,,,,,,,,,,7*44
$GNGST,112404.60,0.000,,,,0.128,0.211,0.362*6D
$GNVTG,,T,,M,0.36,N,0.67,K,A*39
$GNRMC,112404.80,A,1221.4951741,N,07635.7718501,E,0.22,,270718,,,D*5B
$GNGGA,112404.80,1221.4951741,N,07635.7718501,E,5,04,0.7,790.718,M,-88.379,M,2.8,*7A
$GPGSA,A,3,10,15,20,25,29,41,,,,,,,5.4,2.7,4.7*3B
$GLGSA,A,3,71,,,,,,,,,,,,0.0,0.0,0.0*28
$GAGSA,A,3,07,,,,,,,,,,,,0.0,0.0,0.0*24
$GPGSV,2,1,06,10,21,253,38,15,65,075,39,20,37,279,44,25,28,206,43,1*67
$GPGSV,2,2,06,29,81,013,45,41,74,152,50,,,,,,,,,1*66
$GLGSV,1,1,01,71,51,236,43,,,,,,,,,,,,,1*4B
$GAGSV,1,1,01,07,87,339,42,,,,,,,,,,,,,7*45
$GNGST,112404.80,0.000,,,,0.128,0.211,0.362*63
$GNVTG,,T,,M,0.22,N,0.40,K,A*39
$GNRMC,112405.00,A,1221.4951836,N,07635.7718522,E,0.33,,270718,,,D*5C
$GNGGA,112405.00,1221.4951836,N,07635.7718522,E,5,05,0.7,790.680,M,-88.379,M,3.0,*75
$GPGSA,A,3,10,15,20,24,25,29,41,,,,,,3.0,1.8,2.3*31
$GLGSA,A,3,71,,,,,,,,,,,,0.0,0.0,0.0*28
$GAGSA,A,3,07,,,,,,,,,,,,0.0,0.0,0.0*24
$GPGSV,2,1,07,10,21,253,38,15,65,075,40,20,37,279,44,24,17,142,35,1*67
$GPGSV,2,2,07,25,28,206,45,29,81,013,46,41,74,152,50,,,,,1*5C
$GLGSV,1,1,01,71,51,236,43,,,,,,,,,,,,,1*4B
$GAGSV,1,1,01,07,87,339,42,,,,,,,,,,,,,7*45
$GNGST,112405.00,0.006,,,,0.127,0.211,0.362*63
$GNVTG,,T,,M,0.33,N,0.61,K,A*3A
$GNRMC,112405.20,A,1221.4951804,N,07635.7718598,E,0.19,,270718,,,D*56
$GNGGA,112405.20,1221.4951804,N,07635.7718598,E,5,05,0.7,790.634,M,-88.379,M,3.2,*7A
$GPGSA,A,3,10,15,20,24,25,29,41,,,,,,3.0,1.8,2.3*31
$GLGSA,A,3,71,,,,,,,,,,,,0.0,0.0,0.0*28
$GAGSA,A,3,07,,,,,,,,,,,,0.0,0.0,0.0*24
$GPGSV,2,1,07,10,21,253,38,15,65,075,39,20,37,279,44,24,17,142,35,1*69
$GPGSV,2,2,07,25,28,206,44,29,81,013,45,41,74,152,50,,,,,1*5E
$GLGSV,1,1,01,71,51,236,43,,,,,,,,,,,,,1*4B
$GAGSV,1,1,01,07,87,339,41,,,,,,,,,,,,,7*46
$GNGST,112405.20,0.030,,,,0.127,0.209,0.361*6E
$GNVTG,,T,,M,0.19,N,0.36,K,A*30
$GNRMC,112405.40,A,1221.4951938,N,07635.7718562,E,0.25,,270718,,,D*54
$GNGGA,112405.40,1221.4951938,N,07635.7718562,E,5,04,0.8,790.629,M,-88.379,M,3.4,*73
$GPGSA,A,3,10,15,20,25,29,41,,,,,,,5.4,2.7,4.7*3B
$GLGSA,A,3,71,,,,,,,,,,,,0.0,0.0,0.0*28
$GAGSA,A,3,07,,,,,,,,,,,,0.0,0.0,0.0*24
$GPGSV,2,1,06,10,21,253,37,15,65,075,40,20,37,279,44,25,28,206,45,1*60
$GPGSV,2,2,06,29,81,013,46,41,74,152,51,,,,,,,,,1*64
$GLGSV,1,1,01,71,51,236,43,,,,,,,,,,,,,1*4B
$GAGSV,1,1,01,07,87,339,41,,,,,,,,,,,,,7*46
$GNGST,112405.40,0.001,,,,0.127,0.210,0.361*62
$GNVTG,,T,,M,0.25,N,0.47,K,A*39
$GNRMC,112405.60,A,1221.4952033,N,07635.7718622,E,0.32,,270718,,,D*56
$GNGGA,112405.60,1221.4952033,N,07635.7718622,E,5,04,0.8,790.651,M,-88.379,M,0.6,*79
$GPGSA,A,3,10,15,20,25,29,41,,,,,,,5.4,2.7,4.7*3B
$GLGSA,A,3,71,,,,,,,,,,,,0.0,0.0,0.0*28
$GAGSA,A,3,07,,,,,,,,,,,,0.0,0.0,0.0*24
$GPGSV,2,1,06,10,21,253,37,15,65,075,40,20,37,279,44,25,28,206,45,1*60
$GPGSV,2,2,06,29,81,013,46,41,74,152,51,,,,,,,,,1*64
$GLGSV,1,1,01,71,51,236,43,,,,,,,,,,,,,1*4B
$GAGSV,1,1,01,07,87,339,43,,,,,,,,,,,,,7*44
$GNGST,112405.60,0.031,,,,0.127,0.210,0.360*62
$GNVTG,,T,,M,0.32,N,0.59,K,A*30
$GNRMC,112405.80,A,1221.4952080,N,07635.7718972,E,1.03,83.42,270718,,,D*7A
$GNGGA,112405.80,1221.4952080,N,07635.7718972,E,5,04,0.8,790.676,M,-88.379,M,0.8,*7E
$GPGSA,A,3,10,15,20,25,29,41,,,,,,,5.4,2.7,4.7*3B
$GLGSA,A,3,71,,,,,,,,,,,,0.0,0.0,0.0*28
$GAGSA,A,3,07,,,,,,,,,,,,0.0,0.0,0.0*24
$GPGSV,2,1,06,10,21,253,39,15,65,075,40,20,37,279,42,25,28,206,44,1*69
$GPGSV,2,2,06,29,81,013,48,41,74,152,48,,,,,,,,,1*62
$GLGSV,1,1,01,71,51,236,43,,,,,,,,,,,,,1*4B
$GAGSV,1,1,01,07,87,339,45,,,,,,,,,,,,,7*42
$GNGST,112405.80,0.078,,,,0.127,0.210,0.359*6B
$GNVTG,83.42,T,,M,1.03,N,1.91,K,A*15
$GNRMC,112406.00,A,1221.4952300,N,07635.7719148,E,0.46,,270718,,,D*59
$GNGGA,112406.00,1221.4952300,N,07635.7719148,E,5,04,0.8,790.694,M,-88.379,M,1.0,*7B
$GPGSA,A,3,10,15,20,25,29,41,,,,,,,5.4,2.7,4.7*3B
$GLGSA,A,3,71,,,,,,,,,,,,0.0,0.0,0.0*28
$GAGSA,A,3,07,,,,,,,,,,,,0.0,0.0,0.0*24
$GPGSV,2,1,06,10,21,253,40,15,65,075,38,20,37,279,39,25,28,206,42,1*62
$GPGSV,2,2,06,29,81,013,46,41,74,152,43,,,,,,,,,1*67
$GLGSV,1,1,01,71,51,236,42,,,,,,,,,,,,,1*4A
$GAGSV,1,1,01,07,87,339,42,,,,,,,,,,,,,7*45
$GNGST,112406.00,0.041,,,,0.127,0.210,0.359*6A
$GNVTG,,T,,M,0.46,N,0.85,K,A*32
$GNRMC,112406.20,A,1221.4952808,N,07635.7719249,E,1.04,1.21,270718,,,D*41
$GNGGA,112406.20,1221.4952808,N,07635.7719249,E,5,04,0.8,790.730,M,-88.379,M,1.2,*75
$GPGSA,A,3,15,20,25,29,41,,,,,,,,5.8,2.8,5.1*3E
$GLGSA,A,3,71,,,,,,,,,,,,0.0,0.0,0.0*28
$GAGSA,A,3,07,,,,,,,,,,,,0.0,0.0,0.0*24
$GPGSV,2,1,05,15,65,075,36,20,37,279,38,25,28,206,41,29,81,013,44,1*6F
$GPGSV,2,2,05,41,74,152,41,,,,,,,,,,,,,1*54
$GLGSV,1,1,01,71,51,236,44,,,,,,,,,,,,,1*4C
$GAGSV,1,1,01,07,87,339,41,,,,,,,,,,,,,7*46
$GNGST,112406.20,0.023,,,,0.127,0.210,0.359*6C
$GNVTG,1.21,T,,M,1.04,N,1.93,K,A*2F
$GNRMC,112406.40,A,1221.4953023,N,07635.7719888,E,1.65,69.16,270718,,,D*7D
$GNGGA,112406.40,1221.4953023,N,07635.7719888,E,5,04,0.8,790.671,M,-88.379,M,0.4,*77
$GPGSA,A,3,15,20,25,29,41,,,,,,,,5.8,2.8,5.1*3E
$GLGSA,A,3,71,,,,,,,,,,,,0.0,0.0,0.0*28
$GAGSA,A,3,07,,,,,,,,,,,,0.0,0.0,0.0*24
$GPGSV,2,1,05,15,65,075,36,20,37,279,38,25,28,206,40,29,81,013,44,1*6E
$GPGSV,2,2,05,41,74,152,42,,,,,,,,,,,,,1*57
$GLGSV,1,1,01,71,51,236,43,,,,,,,,,,,,,1*4B
$GAGSV,1,1,01,07,87,339,40,,,,,,,,,,,,,7*47
$GNGST,112406.40,0.000,,,,0.126,0.210,0.358*6B
$GNVTG,69.16,T,,M,1.65,N,3.06,K,A*1C
$GNRMC,112406.60,A,1221.4953893,N,07635.7721149,E,3.37,61.59,270718,,,D*75
$GNGGA,112406.60,1221.4953893,N,07635.7721149,E,5,04,0.8,790.475,M,-88.379,M,0.6,*7D
$GPGSA,A,3,10,15,20,25,29,41,,,,,,,5.4,2.7,4.7*3B
$GLGSA,A,3,71,,,,,,,,,,,,0.0,0.0,0.0*28
$GAGSA,A,3,07,,,,,,,,,,,,0.0,0.0,0.0*24
$GPGSV,2,1,06,10,21,253,37,15,65,075,42,20,37,279,39,25,28,206,39,1*63
$GPGSV,2,2,06,29,81,013,39,41,74,152,42,,,,,,,,,1*6E
$GLGSV,1,1,01,71,51,236,47,,,,,,,,,,,,,1*4F
$GAGSV,1,1,01,07,87,339,35,,,,,,,,,,,,,7*45
$GNGST,112406.60,0.000,,,,0.126,0.210,0.358*69
$GNVTG,61.59,T,,M,3.37,N,6.24,K,A*1F
$GNRMC,112406.80,A,1221.4954048,N,07635.7722544,E,3.30,79.62,270718,,,D*7E
$GNGGA,112406.80,1221.4954048,N,07635.7722544,E,5,04,0.8,790.397,M,-88.379,M,0.8,*75
$GPGSA,A,3,10,15,20,25,29,41,,,,,,,5.4,2.7,4.7*3B
$GLGSA,A,3,71,,,,,,,,,,,,0.0,0.0,0.0*28
$GAGSA,A,3,07,,,,,,,,,,,,0.0,0.0,0.0*24
$GPGSV,2,1,06,10,21,253,44,15,65,075,45,20,37,279,42,25,28,206,40,1*62
$GPGSV,2,2,06,29,81,013,42,41,74,152,42,,,,,,,,,1*62
$GLGSV,1,1,01,71,51,236,43,,,,,,,,,,,,,1*4B
$GAGSV,1,1,01,07,87,339,37,,,,,,,,,,,,,7*47
$GNGST,112406.80,0.000,,,,0.126,0.210,0.358*67
$GNVTG,79.62,T,,M,3.30,N,6.12,K,A*1C
$GNRMC,112407.00,A,1221.4953780,N,07635.7723098,E,0.57,,270718,,,D*50
$GNGGA,112407.00,1221.4953780,N,07635.7723098,E,5,05,0.8,790.383,M,-88.379,M,1.0,*70
$GPGSA,A,3,10,15,20,24,25,29,41,,,,,,3.0,1.8,2.3*31
$GLGSA,A,3,71,,,,,,,,,,,,0.0,0.0,0.0*28
$GAGSA,A,3,07,,,,,,,,,,,,0.0,0.0,0.0*24
$GPGSV,2,1,07,10,21,253,42,15,65,075,46,20,37,279,43,24,17,142,35,1*6B
$GPGSV,2,2,07,25,28,206,37,29,81,013,46,41,74,152,43,,,,,1*5B
$GLGSV,1,1,01,71,51,236,37,,,,,,,,,,,,,1*48
$GAGSV,1,1,01,07,87,339,39,,,,,,,,,,,,,7*49
$GNGST,112407.00,0.000,,,,0.126,0.210,0.357*61
$GNVTG,,T,,M,0.57,N,1.05,K,A*3B
$GNRMC,112407.20,A,1221.4953595,N,07635.7723067,E,1.44,240.88,270718,,,D*4F
$GNGGA,112407.20,1221.4953595,N,07635.7723067,E,5,05,0.7,790.351,M,-88.379,M,1.2,*76
$GPGSA,A,3,10,15,20,24,29,41,,,,,,,4.0,2.8,2.9*38
$GLGSA,A,3,71,,,,,,,,,,,,0.0,0.0,0.0*28
$GAGSA,A,3,07,,,,,,,,,,,,0.0,0.0,0.0*24
$GPGSV,2,1,06,10,21,253,39,15,65,075,48,20,37,279,44,24,17,142,37,1*6D
$GPGSV,2,2,06,29,81,013,46,41,74,152,43,,,,,,,,,1*67
$GLGSV,1,1,01,71,51,236,35,,,,,,,,,,,,,1*4A
$GAGSV,1,1,01,07,87,339,37,,,,,,,,,,,,,7*47
$GNGST,112407.20,0.000,,,,0.126,0.209,0.356*6A
$GNVTG,240.88,T,,M,1.44,N,2.67,K,A*27
$GNRMC,112407.40,A,1221.4953506,N,07635.7722903,E,1.00,248.35,270718,,,D*47
$GNGGA,112407.40,1221.4953506,N,07635.7722903,E,5,05,0.7,790.319,M,-88.379,M,1.4,*7A
$GPGSA,A,3,10,15,20,24,25,29,41,,,,,,3.0,1.8,2.3*31
$GLGSA,A,3,71,84,,,,,,,,,,,0.0,0.0,0.0*24
$GAGSA,A,3,07,,,,,,,,,,,,0.0,0.0,0.0*24
$GPGSV,2,1,07,10,21,253,37,15,65,075,48,20,37,279,37,24,17,142,37,1*66
$GPGSV,2,2,07,25,28,206,38,29,81,013,43,41,74,152,39,,,,,1*5C
$GLGSV,1,1,02,71,51,236,35,84,49,080,38,,,,,,,,,1*7B
$GAGSV,1,1,01,07,87,339,37,,,,,,,,,,,,,7*47
$GNGST,112407.40,0.000,,,,0.126,0.208,0.356*6D
$GNVTG,248.35,T,,M,1.00,N,1.85,K,A*26
$GNRMC,112407.60,A,1221.4953269,N,07635.7722633,E,0.98,243.93,270718,,,D*40
$GNGGA,112407.60,1221.4953269,N,07635.7722633,E,5,07,0.7,790.283,M,-88.379,M,0.6,*79
$GPGSA,A,3,10,15,20,24,25,29,41,,,,,,3.0,1.8,2.3*31
$GLGSA,A,3,71,84,,,,,,,,,,,0.0,0.0,0.0*24
$GAGSA,A,3,07,,,,,,,,,,,,0.0,0.0,0.0*24
$GPGSV,2,1,07,10,21,253,37,15,65,075,50,20,37,279,35,24,17,142,35,1*6F
$GPGSV,2,2,07,25,28,206,38,29,81,013,45,41,74,152,41,,,,,1*55
$GLGSV,1,1,02,71,51,236,35,84,49,080,38,,,,,,,,,1*7B
$GAGSV,1,1,01,07,87,339,37,,,,,,,,,,,,,7*47
$GNGST,112407.60,0.000,,,,0.125,0.208,0.355*6F
$GNVTG,243.93,T,,M,0.98,N,1.81,K,A*25
$GNRMC,112407.80,A,1221.4953105,N,07635.7722530,E,0.31,,270718,,,D*55
$GNGGA,112407.80,1221.4953105,N,07635.7722530,E,5,07,0.7,790.267,M,-88.379,M,0.8,*7A
$GPGSA,A,3,15,20,24,25,29,41,,,,,,,3.1,1.9,2.5*36
$GLGSA,A,3,71,84,,,,,,,,,,,0.0,0.0,0.0*24
$GAGSA,A,3,07,,,,,,,,,,,,0.0,0.0,0.0*24
$GPGSV,2,1,06,15,65,075,50,20,37,279,35,24,17,142,35,25,28,206,44,1*65
$GPGSV,2,2,06,29,81,013,46,41,74,152,41,,,,,,,,,1*65
$GLGSV,1,1,02,71,51,236,36,84,49,080,40,,,,,,,,,1*77
$GAGSV,1,1,01,07,87,339,37,,,,,,,,,,,,,7*47
$GNGST,112407.80,0.000,,,,0.125,0.207,0.354*6F
$GNVTG,,T,,M,0.31,N,0.58,K,A*32
$GNRMC,112408.00,A,1221.4953065,N,07635.7722406,E,0.16,,270718,,,D*54
$GNGGA,112408.00,1221.4953065,N,07635.7722406,E,5,07,0.7,790.292,M,-88.379,M,1.0,*7D
$GPGSA,A,3,15,20,24,25,29,41,,,,,,,3.1,1.9,2.5*36
$GLGSA,A,3,71,84,,,,,,,,,,,0.0,0.0,0.0*24
$GAGSA,A,3,07,,,,,,,,,,,,0.0,0.0,0.0*24
$GPGSV,2,1,06,15,65,075,48,20,37,279,35,24,17,142,35,25,28,206,46,1*6E
$GPGSV,2,2,06,29,81,013,45,41,74,152,40,,,,,,,,,1*67
$GLGSV,1,1,02,71,51,236,36,84,49,080,40,,,,,,,,,1*77
$GAGSV,1,1,01,07,87,339,37,,,,,,,,,,,,,7*47
$GNGST,112408.00,0.000,,,,0.125,0.206,0.353*6E
$GNVTG,,T,,M,0.16,N,0.30,K,A*39
$GNRMC,112408.20,A,1221.4953081,N,07635.7722290,E,0.23,,270718,,,D*53
$GNGGA,112408.20,1221.4953081,N,07635.7722290,E,5,05,0.7,790.329,M,-88.379,M,1.2,*7D
$GPGSA,A,3,15,25,29,41,,,,,,,,,7.2,4.6,5.6*3B
$GLGSA,A,3,71,84,,,,,,,,,,,0.0,0.0,0.0*24
$GAGSA,A,3,07,,,,,,,,,,,,0.0,0.0,0.0*24
$GPGSV,1,1,04,15,65,075,47,25,28,206,47,29,81,013,44,41,74,152,40,1*68
$GLGSV,1,1,02,71,51,236,36,84,49,080,38,,,,,,,,,1*78
$GAGSV,1,1,01,07,87,339,37,,,,,,,,,,,,,7*47
$GNGST,112408.20,0.000,,,,0.126,0.208,0.359*6B
$GNVTG,,T,,M,0.23,N,0.43,K,A*3B
$GNRMC,112408.40,A,1221.4952874,N,07635.7722133,E,0.36,,270718,,,D*58
$GNGGA,112408.40,1221.4952874,N,07635.7722133,E,5,05,0.8,790.431,M,-88.379,M,0.4,*74
$GPGSA,A,3,15,25,29,41,,,,,,,,,7.2,4.6,5.6*3B
$GLGSA,A,3,71,84,,,,,,,,,,,0.0,0.0,0.0*24
$GAGSA,A,3,07,,,,,,,,,,,,0.0,0.0,0.0*24
$GPGSV,1,1,04,15,65,075,46,25,28,206,44,29,81,013,45,41,74,152,41,1*6A
$GLGSV,1,1,02,71,51,236,36,84,49,080,38,,,,,,,,,1*78
$GAGSV,1,1,01,07,87,339,37,,,,,,,,,,,,,7*47
$GNGST,112408.40,0.000,,,,0.127,0.209,0.380*69
$GNVTG,,T,,M,0.36,N,0.67,K,A*39
$GNRMC,112408.60,A,1221.4952554,N,07635.7721784,E,1.12,224.65,270718,,,D*42
$GNGGA,112408.60,1221.4952554,N,07635.7721784,E,5,05,0.8,790.459,M,-88.379,M,0.6,*7C
$GPGSA,A,3,15,25,29,41,,,,,,,,,7.2,4.6,5.6*3B
$GLGSA,A,3,71,84,,,,,,,,,,,0.0,0.0,0.0*24
$GAGSA,A,3,07,,,,,,,,,,,,0.0,0.0,0.0*24
$GPGSV,1,1,04,15,65,075,46,25,28,206,40,29,81,013,47,41,74,152,40,1*6D
$GLGSV,1,1,02,71,51,236,36,84,49,080,38,,,,,,,,,1*78
$GAGSV,1,1,01,07,87,339,37,,,,,,,,,,,,,7*47
$GNGST,112408.60,0.000,,,,0.129,0.209,0.402*68
$GNVTG,224.65,T,,M,1.12,N,2.07,K,A*23
$GNRMC,112408.80,A,1221.4952313,N,07635.7721654,E,0.64,,270718,,,D*5C
$GNGGA,112408.80,1221.4952313,N,07635.7721654,E,5,06,0.7,790.485,M,-88.379,M,0.8,*78
$GPGSA,A,3,15,25,29,41,,,,,,,,,7.2,4.6,5.6*3B
$GLGSA,A,3,70,71,84,,,,,,,,,,0.0,0.0,0.0*23
$GAGSA,A,3,07,,,,,,,,,,,,0.0,0.0,0.0*24
$GPGSV,1,1,04,15,65,075,45,25,28,206,36,29,81,013,48,41,74,152,42,1*62
$GLGSV,1,1,03,70,61,350,36,71,51,236,40,84,49,080,36,,,,,1*45
$GAGSV,1,1,01,07,87,339,38,,,,,,,,,,,,,7*48
$GNGST,112408.80,0.000,,,,0.129,0.209,0.409*6D
$GNVTG,,T,,M,0.64,N,1.18,K,A*37
$GNRMC,112409.00,A,1221.4952185,N,07635.7721911,E,0.87,,270718,,,D*5B
$GNGGA,112409.00,1221.4952185,N,07635.7721911,E,5,06,0.7,790.621,M,-88.379,M,1.0,*77
$GPGSA,A,3,10,15,20,25,29,41,,,,,,,5.4,2.7,4.7*3B
$GLGSA,A,3,70,71,84,,,,,,,,,,0.0,0.0,0.0*23
$GAGSA,A,3,07,,,,,,,,,,,,0.0,0.0,0.0*24
$GPGSV,2,1,06,10,21,253,36,15,65,075,41,20,37,279,41,25,28,206,36,1*61
$GPGSV,2,2,06,29,81,013,47,41,74,152,39,,,,,,,,,1*6B
$GLGSV,1,1,03,70,61,350,37,71,51,236,39,84,49,080,36,,,,,1*4A
$GAGSV,1,1,01,07,87,339,39,,,,,,,,,,,,,7*49
$GNGST,112409.00,0.000,,,,0.129,0.208,0.407*6B
$GNVTG,,T,,M,0.87,N,1.61,K,A*34
$GNRMC,112409.20,A,1221.4952257,N,07635.7721921,E,0.17,,270718,,,D*5F
$GNGGA,112409.20,1221.4952257,N,07635.7721921,E,5,06,0.7,790.717,M,-88.379,M,1.2,*7C
$GPGSA,A,3,10,15,20,25,29,41,,,,,,,5.4,2.7,4.7*3B
$GLGSA,A,3,70,71,84,,,,,,,,,,0.0,0.0,0.0*23
$GAGSA,A,3,07,,,,,,,,,,,,0.0,0.0,0.0*24
$GPGSV,2,1,06,10,21,253,36,15,65,075,43,20,37,279,44,25,28,206,42,1*65
$GPGSV,2,2,06,29,81,013,49,41,74,152,40,,,,,,,,,1*6B
$GLGSV,1,1,03,70,61,350,39,71,51,236,39,84,49,080,36,,,,,1*44
$GAGSV,1,1,01,07,87,339,39,,,,,,,,,,,,,7*49
$GNGST,112409.20,0.000,,,,0.128,0.207,0.404*64
$GNVTG,,T,,M,0.17,N,0.32,K,A*3A
$GNRMC,112409.40,A,1221.4952475,N,07635.7721933,E,0.35,,270718,,,D*5C
$GNGGA,112409.40,1221.4952475,N,07635.7721933,E,5,07,0.7,790.641,M,-88.379,M,1.4,*7A
$GPGSA,A,3,15,20,29,41,,,,,,,,,7.9,4.0,6.8*3E
$GLGSA,A,3,70,71,84,,,,,,,,,,0.0,0.0,0.0*23
$GAGSA,A,3,07,,,,,,,,,,,,0.0,0.0,0.0*24
$GPGSV,1,1,04,15,65,075,40,20,37,279,38,29,81,013,45,41,74,152,37,1*65
$GLGSV,1,1,03,70,61,350,36,71,51,236,35,84,49,080,36,,,,,1*47
$GAGSV,1,1,01,07,87,339,36,,,,,,,,,,,,,7*46
$GNGST,112409.40,0.000,,,,0.128,0.207,0.400*66
$GNVTG,,T,,M,0.35,N,0.66,K,A*3B
$GNRMC,112409.60,A,1221.4952629,N,07635.7721920,E,0.15,,270718,,,D*55
$GNGGA,112409.60,1221.4952629,N,07635.7721920,E,5,07,0.7,790.501,M,-88.379,M,1.6,*74
$GPGSA,A,3,15,20,29,41,,,,,,,,,7.9,4.0,6.8*3E
$GLGSA,A,3,70,71,84,,,,,,,,,,0.0,0.0,0.0*23
$GPGSV,1,1,04,15,65,075,40,20,37,279,35,29,81,013,44,41,74,152,37,1*69
$GLGSV,1,1,03,70,61,350,36,71,51,236,35,84,49,080,36,,,,,1*47
$GNGST,112409.60,0.000,,,,0.127,0.205,0.386*60
$GNVTG,,T,,M,0.15,N,0.28,K,A*33
$GNRMC,112409.80,A,1221.4952665,N,07635.7721961,E,0.13,,270718,,,D*50
$GNGGA,112409.80,1221.4952665,N,07635.7721961,E,5,07,0.8,790.437,M,-88.379,M,1.8,*72
$GPGSA,A,3,15,20,29,41,,,,,,,,,7.9,4.0,6.8*3E
$GLGSA,A,3,70,71,84,,,,,,,,,,0.0,0.0,0.0*23
$GPGSV,1,1,04,15,65,075,40,20,37,279,35,29,81,013,41,41,74,152,37,1*6C
$GLGSV,1,1,03,70,61,350,36,71,51,236,35,84,49,080,38,,,,,1*49
$GNGST,112409.80,0.000,,,,0.126,0.205,0.380*69
$GNVTG,,T,,M,0.13,N,0.25,K,A*38
$GNRMC,112410.00,A,1221.4952777,N,07635.7722007,E,0.26,,270718,,,D*5E
$GNGGA,112410.00,1221.4952777,N,07635.7722007,E,5,04,0.8,790.370,M,-88.379,M,2.0,*76
$GPGSA,A,3,15,29,,,,,,,,,,,0.0,0.0,0.0*3D
$GLGSA,A,3,70,84,,,,,,,,,,,0.0,0.0,0.0*25
$GPGSV,1,1,02,15,65,075,37,29,81,013,40,,,,,,,,,1*63
$GLGSV,1,1,02,70,61,350,36,84,49,080,38,,,,,,,,,1*7B
$GNGST,112410.00,2.249,,,,0.128,0.210,0.383*6D
$GNVTG,,T,,M,0.26,N,0.49,K,A*34
$GNRMC,112410.20,A,1221.4952928,N,07635.7721939,E,0.43,,270718,,,D*5C
$GNGGA,112410.20,1221.4952928,N,07635.7721939,E,5,05,0.8,790.262,M,-88.379,M,2.2,*76
$GPGSA,A,3,15,29,,,,,,,,,,,0.0,0.0,0.0*3D
$GLGSA,A,3,70,71,84,,,,,,,,,,0.0,0.0,0.0*23
$GPGSV,1,1,02,15,65,075,40,29,81,013,40,,,,,,,,,1*63
$GLGSV,1,1,03,70,61,350,36,71,51,236,35,84,49,080,38,,,,,1*49
$GNGST,112410.20,1.024,,,,0.127,0.207,0.401*61
$GNVTG,,T,,M,0.43,N,0.80,K,A*32
$GNRMC,112410.40,A,1221.4953251,N,07635.7722066,E,0.92,,270718,,,D*52
$GNGGA,112410.40,1221.4953251,N,07635.7722066,E,5,04,0.8,790.212,M,-88.379,M,0.4,*76
$GPGSA,A,3,15,29,,,,,,,,,,,0.0,0.0,0.0*3D
$GLGSA,A,3,71,84,,,,,,,,,,,0.0,0.0,0.0*24
$GPGSV,1,1,02,15,65,075,43,29,81,013,41,,,,,,,,,1*61
$GLGSV,1,1,02,71,51,236,37,84,49,080,43,,,,,,,,,1*75
$GNGST,112410.40,0.822,,,,0.132,0.223,0.445*6A
$GNVTG,,T,,M,0.92,N,1.71,K,A*31
$GNRMC,112410.60,A,1221.4953766,N,07635.7722138,E,1.16,7.14,270718,,,D*4A
$GNGGA,112410.60,1221.4953766,N,07635.7722138,E,5,04,0.8,790.125,M,-88.379,M,0.6,*7A
$GPGSA,A,3,15,25,29,,,,,,,,,,0.0,0.0,0.0*3A
$GLGSA,A,3,71,84,,,,,,,,,,,0.0,0.0,0.0*24
$GPGSV,1,1,03,15,65,075,44,25,28,206,35,29,81,013,41,,,,,1*58
$GLGSV,1,1,02,71,51,236,37,84,49,080,43,,,,,,,,,1*75
$GNGST,112410.60,0.971,,,,0.145,0.266,0.565*6D
$GNVTG,7.14,T,,M,1.16,N,2.15,K,A*21
$GNRMC,112410.80,A,1221.4952654,N,07635.7722748,E,0.61,,270718,,,D*59
$GNGGA,112410.80,1221.4952654,N,07635.7722748,E,5,05,0.8,790.674,M,-88.379,M,0.8,*78
$GPGSA,A,3,15,29,41,,,,,,,,,,0.0,0.0,0.0*38
$GLGSA,A,3,71,84,,,,,,,,,,,0.0,0.0,0.0*24
$GPGSV,1,1,03,15,65,075,44,29,81,013,41,41,74,152,35,,,,,1*51
$GLGSV,1,1,02,71,51,236,37,84,49,080,43,,,,,,,,,1*75
$GNGST,112410.80,0.062,,,,0.128,0.209,0.403*6B
$GNVTG,,T,,M,0.61,N,1.13,K,A*39
$GNRMC,112411.00,A,1221.4952603,N,07635.7722711,E,0.58,,270718,,,D*54
$GNGGA,112411.00,1221.4952603,N,07635.7722711,E,5,05,0.8,790.649,M,-88.379,M,1.0,*78
$GPGSA,A,3,15,29,41,,,,,,,,,,0.0,0.0,0.0*38
$GLGSA,A,3,71,84,,,,,,,,,,,0.0,0.0,0.0*24
$GPGSV,1,1,03,15,65,075,44,29,81,013,41,41,74,152,35,,,,,1*51
$GLGSV,1,1,02,71,51,236,37,84,49,080,43,,,,,,,,,1*75
$GNGST,112411.00,0.045,,,,0.127,0.208,0.397*63
$GNVTG,,T,,M,0.58,N,1.07,K,A*36
$GNRMC,112411.20,A,1221.4953049,N,07635.7722182,E,1.31,289.54,270718,,,D*41
$GNGGA,112411.20,1221.4953049,N,07635.7722182,E,5,07,0.8,790.376,M,-88.379,M,1.2,*76
$GPGSA,A,3,15,20,25,29,41,,,,,,,,5.8,2.8,5.1*3E
$GLGSA,A,3,70,71,84,,,,,,,,,,0.0,0.0,0.0*23
$GAGSA,A,3,07,,,,,,,,,,,,0.0,0.0,0.0*24
$GPGSV,2,1,05,15,65,075,51,20,37,279,37,25,28,206,42,29,81,013,48,1*6E
$GPGSV,2,2,05,41,74,152,41,,,,,,,,,,,,,1*54
$GLGSV,1,1,03,70,61,350,35,71,51,236,41,84,49,080,47,,,,,1*41
$GAGSV,1,1,01,07,87,339,40,,,,,,,,,,,,,7*47
$GNGST,112411.20,0.073,,,,0.125,0.204,0.375*66
$GNVTG,289.54,T,,M,1.31,N,2.43,K,A*27
$GNRMC,112411.40,A,1221.4952991,N,07635.7721841,E,0.93,,270718,,,D*5A
$GNGGA,112411.40,1221.4952991,N,07635.7721841,E,5,07,0.7,790.384,M,-88.379,M,1.4,*7C
$GPGSA,A,3,15,20,25,29,41,,,,,,,,5.8,2.8,5.1*3E
$GLGSA,A,3,70,71,84,,,,,,,,,,0.0,0.0,0.0*23
$GAGSA,A,3,07,,,,,,,,,,,,0.0,0.0,0.0*24
$GPGSV,2,1,05,15,65,075,49,20,37,279,37,25,28,206,44,29,81,013,46,1*6F
$GPGSV,2,2,05,41,74,152,43,,,,,,,,,,,,,1*56
$GLGSV,1,1,03,70,61,350,36,71,51,236,42,84,49,080,46,,,,,1*40
$GAGSV,1,1,01,07,87,339,39,,,,,,,,,,,,,7*49
$GNGST,112411.40,0.034,,,,0.125,0.204,0.373*65
$GNVTG,,T,,M,0.93,N,1.72,K,A*33
$GNRMC,112411.60,A,1221.4952981,N,07635.7721462,E,0.75,,270718,,,D*5C
$GNGGA,112411.60,1221.4952981,N,07635.7721462,E,5,06,0.7,790.324,M,-88.379,M,0.6,*7A
$GPGSA,A,3,15,25,29,41,,,,,,,,,7.2,4.6,5.5*38
$GLGSA,A,3,70,71,84,,,,,,,,,,0.0,0.0,0.0*23
$GAGSA,A,3,07,,,,,,,,,,,,0.0,0.0,0.0*24
$GPGSV,1,1,04,15,65,075,47,25,28,206,44,29,81,013,45,41,74,152,43,1*69
$GLGSV,1,1,03,70,61,350,35,71,51,236,36,84,49,080,45,,,,,1*43
$GAGSV,1,1,01,07,87,339,39,,,,,,,,,,,,,7*49
$GNGST,112411.60,0.000,,,,0.125,0.204,0.377*64
$GNVTG,,T,,M,0.75,N,1.39,K,A*34
$GNRMC,112411.80,A,1221.4952896,N,07635.7721155,E,0.50,,270718,,,D*53
$GNGGA,112411.80,1221.4952896,N,07635.7721155,E,5,05,0.7,790.222,M,-88.379,M,0.8,*78
$GPGSA,A,3,15,25,29,41,,,,,,,,,7.2,4.6,5.5*38
$GLGSA,A,3,70,84,,,,,,,,,,,0.0,0.0,0.0*25
$GAGSA,A,3,07,,,,,,,,,,,,0.0,0.0,0.0*24
$GPGSV,1,1,04,15,65,075,47,25,28,206,44,29,81,013,44,41,74,152,43,1*68
$GLGSV,1,1,02,70,61,350,35,84,49,080,44,,,,,,,,,1*73
$GAGSV,1,1,01,07,87,339,39,,,,,,,,,,,,,7*49
$GNGST,112411.80,0.000,,,,0.129,0.205,0.400*60
$GNVTG,,T,,M,0.50,N,0.92,K,A*33
$GNRMC,112412.00,A,1221.4952787,N,07635.7721004,E,0.34,,270718,,,D*50
$GNGGA,112412.00,1221.4952787,N,07635.7721004,E,5,05,0.7,790.070,M,-88.379,M,1.0,*75
$GPGSA,A,3,15,25,29,41,,,,,,,,,7.2,4.6,5.5*38
$GLGSA,A,3,70,84,,,,,,,,,,,0.0,0.0,0.0*25
$GAGSA,A,3,07,,,,,,,,,,,,0.0,0.0,0.0*24
$GPGSV,1,1,04,15,65,075,48,25,28,206,42,29,81,013,45,41,74,152,44,1*67
$GLGSV,1,1,02,70,61,350,35,84,49,080,44,,,,,,,,,1*73
$GAGSV,1,1,01,07,87,339,39,,,,,,,,,,,,,7*49
$GNGST,112412.00,0.000,,,,0.138,0.205,0.462*6F
$GNVTG,,T,,M,0.34,N,0.63,K,A*3F
$GNRMC,112412.20,A,1221.4952608,N,07635.7720943,E,0.42,,270718,,,A*5B
$GNGGA,112412.20,1221.4952608,N,07635.7720943,E,1,03,0.7,789.928,M,-88.379,M,1.2,*76
$GPGSA,A,3,15,25,29,41,,,,,,,,,7.2,4.6,5.5*38
$GLGSA,A,3,84,,,,,,,,,,,,0.0,0.0,0.0*22
$GAGSA,A,3,07,,,,,,,,,,,,0.0,0.0,0.0*24
$GPGSV,1,1,04,15,65,075,48,25,28,206,42,29,81,013,45,41,74,152,44,1*67
$GLGSV,1,1,01,84,49,080,44,,,,,,,,,,,,,1*40
$GAGSV,1,1,01,07,87,339,39,,,,,,,,,,,,,7*49
$GNGST,112412.20,0.000,,,,0.161,0.207,0.588*66
$GNVTG,,T,,M,0.42,N,0.78,K,A*34
$GNRMC,112412.40,A,1221.4952602,N,07635.7720702,E,0.35,,270718,,,D*59
$GNGGA,112412.40,1221.4952602,N,07635.7720702,E,5,05,0.7,789.720,M,-88.379,M,0.4,*72
$GPGSA,A,3,15,25,29,41,,,,,,,,,7.2,4.6,5.5*38
$GLGSA,A,3,70,84,,,,,,,,,,,0.0,0.0,0.0*25
$GAGSA,A,3,07,,,,,,,,,,,,0.0,0.0,0.0*24
$GPGSV,1,1,04,15,65,075,48,25,28,206,42,29,81,013,45,41,74,152,44,1*67
$GLGSV,1,1,02,70,61,350,35,84,49,080,44,,,,,,,,,1*73
$GAGSV,1,1,01,07,87,339,39,,,,,,,,,,,,,7*49
$GNGST,112412.40,0.000,,,,0.203,0.207,0.809*63
$GNVTG,,T,,M,0.35,N,0.65,K,A*38
$GNRMC,112412.60,A,1221.4952552,N,07635.7720442,E,0.60,,270718,,,D*5A
$GNGGA,112412.60,1221.4952552,N,07635.7720442,E,5,05,0.7,789.548,M,-88.379,M,0.6,*7F
$GPGSA,A,3,15,25,29,41,,,,,,,,,7.2,4.6,5.5*38
$GLGSA,A,3,70,84,,,,,,,,,,,0.0,0.0,0.0*25
$GAGSA,A,3,07,,,,,,,,,,,,0.0,0.0,0.0*24
$GPGSV,1,1,04,15,65,075,47,25,28,206,43,29,81,013,45,41,74,152,44,1*69
$GLGSV,1,1,02,70,61,350,35,84,49,080,44,,,,,,,,,1*73
$GAGSV,1,1,01,07,87,339,38,,,,,,,,,,,,,7*48
$GNGST,112412.60,0.000,,,,0.236,0.207,0.998*6E
$GNVTG,,T,,M,0.60,N,1.12,K,A*39
$GNRMC,112412.80,A,1221.4952452,N,07635.7720481,E,0.50,,270718,,,D*59
$GNGGA,112412.80,1221.4952452,N,07635.7720481,E,5,05,0.7,789.670,M,-88.379,M,0.8,*79
$GPGSA,A,3,15,25,29,41,,,,,,,,,7.2,4.6,5.5*38
$GLGSA,A,3,70,84,,,,,,,,,,,0.0,0.0,0.0*25
$GAGSA,A,3,07,,,,,,,,,,,,0.0,0.0,0.0*24
$GPGSV,1,1,04,15,65,075,47,25,28,206,42,29,81,013,45,41,74,152,44,1*68
$GLGSV,1,1,02,70,61,350,35,84,49,080,44,,,,,,,,,1*73
$GAGSV,1,1,01,07,87,339,38,,,,,,,,,,,,,7*48
$GNGST,112412.80,0.000,,,,0.252,0.206,1.092*61
$GNVTG,,T,,M,0.50,N,0.93,K,A*32
$GNRMC,112413.00,A,1221.4952362,N,07635.7720358,E,0.35,,270718,,,D*54
$GNGGA,112413.00,1221.4952362,N,07635.7720358,E,5,05,0.7,789.612,M,-88.379,M,1.0,*7A
$GPGSA,A,3,15,25,29,41,,,,,,,,,7.2,4.6,5.5*38
$GLGSA,A,3,70,84,,,,,,,,,,,0.0,0.0,0.0*25
$GAGSA,A,3,07,,,,,,,,,,,,0.0,0.0,0.0*24
$GPGSV,1,1,04,15,65,075,47,25,28,206,42,29,81,013,45,41,74,152,43,1*6F
$GLGSV,1,1,02,70,61,350,35,84,49,080,44,,,,,,,,,1*73
$GAGSV,1,1,01,07,87,339,38,,,,,,,,,,,,,7*48
$GNGST,112413.00,0.000,,,,0.247,0.206,1.074*64
$GNVTG,,T,,M,0.35,N,0.66,K,A*3B
$GNRMC,112413.20,A,1221.4952357,N,07635.7721455,E,0.47,,270718,,,D*5E
$GNGGA,112413.20,1221.4952357,N,07635.7721455,E,5,06,0.7,790.502,M,-88.379,M,1.2,*7E
$GPGSA,A,3,15,25,29,41,,,,,,,,,7.2,4.6,5.5*38
$GLGSA,A,3,70,71,84,,,,,,,,,,0.0,0.0,0.0*23
$GAGSA,A,3,07,,,,,,,,,,,,0.0,0.0,0.0*24
$GPGSV,1,1,04,15,65,075,47,25,28,206,42,29,81,013,44,41,74,152,42,1*6F
$GLGSV,1,1,03,70,61,350,35,71,51,236,35,84,49,080,44,,,,,1*41
$GAGSV,1,1,01,07,87,339,38,,,,,,,,,,,,,7*48
$GNGST,112413.20,0.000,,,,0.126,0.205,0.401*66
$GNVTG,,T,,M,0.47,N,0.87,K,A*31
$GNRMC,112413.40,A,1221.4952190,N,07635.7721511,E,0.31,,270718,,,D*51
$GNGGA,112413.40,1221.4952190,N,07635.7721511,E,5,05,0.7,790.550,M,-88.379,M,1.4,*72
$GPGSA,A,3,10,15,25,29,41,,,,,,,,5.7,3.0,4.8*33
$GLGSA,A,3,70,84,,,,,,,,,,,0.0,0.0,0.0*25
$GAGSA,A,3,07,,,,,,,,,,,,0.0,0.0,0.0*24
$GPGSV,2,1,05,10,21,253,35,15,65,075,45,25,28,206,42,29,81,013,43,1*6E
$GPGSV,2,2,05,41,74,152,43,,,,,,,,,,,,,1*56
$GLGSV,1,1,02,70,61,350,35,84,49,080,44,,,,,,,,,1*73
$GAGSV,1,1,01,07,87,339,38,,,,,,,,,,,,,7*48
$GNGST,112413.40,0.000,,,,0.133,0.206,0.435*60
$GNVTG,,T,,M,0.31,N,0.57,K,A*3D
$GNRMC,112413.60,A,1221.4952278,N,07635.7721394,E,0.29,,270718,,,D*54
$GNGGA,112413.60,1221.4952278,N,07635.7721394,E,5,06,0.7,790.354,M,-88.379,M,0.6,*7C
$GPGSA,A,3,10,15,20,25,29,41,,,,,,,5.4,2.7,4.6*3A
$GLGSA,A,3,70,84,,,,,,,,,,,0.0,0.0,0.0*25
$GAGSA,A,3,07,,,,,,,,,,,,0.0,0.0,0.0*24
$GPGSV,2,1,06,10,21,253,35,15,65,075,43,20,37,279,36,25,28,206,42,1*63
$GPGSV,2,2,06,29,81,013,41,41,74,152,43,,,,,,,,,1*60
$GLGSV,1,1,02,70,61,350,35,84,49,080,43,,,,,,,,,1*74
$GAGSV,1,1,01,07,87,339,38,,,,,,,,,,,,,7*48
$GNGST,112413.60,0.000,,,,0.125,0.205,0.370*60
$GNVTG,,T,,M,0.29,N,0.55,K,A*36
$GNRMC,112413.80,A,1221.4952215,N,07635.7721413,E,0.10,,270718,,,D*53
$GNGGA,112413.80,1221.4952215,N,07635.7721413,E,5,06,0.7,790.387,M,-88.379,M,0.8,*71
$GPGSA,A,3,10,15,20,25,29,41,,,,,,,5.4,2.7,4.6*3A
$GLGSA,A,3,70,84,,,,,,,,,,,0.0,0.0,0.0*25
$GAGSA,A,3,07,,,,,,,,,,,,0.0,0.0,0.0*24
$GPGSV,2,1,06,10,21,253,35,15,65,075,42,20,37,279,38,25,28,206,42,1*6C
$GPGSV,2,2,06,29,81,013,41,41,74,152,43,,,,,,,,,1*60
$GLGSV,1,1,02,70,61,350,35,84,49,080,41,,,,,,,,,1*76
$GAGSV,1,1,01,07,87,339,37,,,,,,,,,,,,,7*47
$GNGST,112413.80,0.000,,,,0.125,0.205,0.369*66
$GNVTG,,T,,M,0.10,N,0.19,K,A*34
$GNRMC,112414.00,A,1221.4952157,N,07635.7721433,E,0.02,,270718,,,D*58
$GNGGA,112414.00,1221.4952157,N,07635.7721433,E,5,06,0.7,790.423,M,-88.379,M,1.0,*79
$GPGSA,A,3,10,15,20,25,29,41,,,,,,,5.4,2.7,4.6*3A
$GLGSA,A,3,70,84,,,,,,,,,,,0.0,0.0,0.0*25
$GAGSA,A,3,07,,,,,,,,,,,,0.0,0.0,0.0*24
$GPGSV,2,1,06,10,21,253,36,15,65,075,42,20,37,279,38,25,28,206,42,1*6F
$GPGSV,2,2,06,29,81,013,40,41,74,152,43,,,,,,,,,1*61
$GLGSV,1,1,02,70,61,350,35,84,49,080,41,,,,,,,,,1*76
$GAGSV,1,1,01,07,87,339,37,,,,,,,,,,,,,7*47
$GNGST,112414.00,0.000,,,,0.124,0.205,0.368*69
$GNVTG,,T,,M,0.02,N,0.03,K,A*3C
$GNRMC,112414.20,A,1221.4952166,N,07635.7721527,E,0.11,,270718,,,D*5E
$GNGGA,112414.20,1221.4952166,N,07635.7721527,E,5,06,0.7,790.422,M,-88.379,M,1.2,*7E
$GPGSA,A,3,10,15,20,25,29,41,,,,,,,5.4,2.7,4.6*3A
$GLGSA,A,3,70,84,,,,,,,,,,,0.0,0.0,0.0*25
$GAGSA,A,3,07,,,,,,,,,,,,0.0,0.0,0.0*24
$GPGSV,2,1,06,10,21,253,36,15,65,075,43,20,37,279,38,25,28,206,43,1*6F
$GPGSV,2,2,06,29,81,013,40,41,74,152,43,,,,,,,,,1*61
$GLGSV,1,1,02,70,61,350,35,84,49,080,41,,,,,,,,,1*76
$GAGSV,1,1,01,07,87,340,37,,,,,,,,,,,,,7*49
$GNGST,112414.20,0.000,,,,0.124,0.205,0.368*6B
$GNVTG,,T,,M,0.11,N,0.20,K,A*3F
$GNRMC,112414.40,A,1221.4952417,N,07635.7721602,E,0.46,,270718,,,D*5D
$GNGGA,112414.40,1221.4952417,N,07635.7721602,E,5,07,0.7,790.411,M,-88.379,M,0.4,*79
$GPGSA,A,3,10,15,20,25,29,41,,,,,,,5.4,2.7,4.6*3A
$GLGSA,A,3,70,71,84,,,,,,,,,,0.0,0.0,0.0*23
$GAGSA,A,3,07,,,,,,,,,,,,0.0,0.0,0.0*24
$GPGSV,2,1,06,10,21,253,36,15,65,075,42,20,37,279,38,25,28,206,44,1*69
$GPGSV,2,2,06,29,81,013,39,41,74,152,41,,,,,,,,,1*6D
$GLGSV,1,1,03,70,61,350,35,71,51,236,36,84,49,080,40,,,,,1*46
$GAGSV,1,1,01,07,87,340,37,,,,,,,,,,,,,7*49
$GNGST,112414.40,0.000,,,,0.124,0.203,0.367*64
$GNVTG,,T,,M,0.46,N,0.84,K,A*33
$GNRMC,112414.60,A,1221.4952322,N,07635.7721617,E,0.36,,270718,,,D*5D
$GNGGA,112414.60,1221.4952322,N,07635.7721617,E,5,07,0.7,790.387,M,-88.379,M,0.6,*74
$GPGSA,A,3,10,15,20,25,29,41,,,,,,,5.4,2.7,4.6*3A
$GLGSA,A,3,70,71,84,,,,,,,,,,0.0,0.0,0.0*23
$GAGSA,A,3,07,,,,,,,,,,,,0.0,0.0,0.0*24
$GPGSV,2,1,06,10,21,253,36,15,65,075,42,20,37,279,38,25,28,206,44,1*69
$GPGSV,2,2,06,29,81,013,39,41,74,152,41,,,,,,,,,1*6D
$GLGSV,1,1,03,70,61,350,35,71,51,236,36,84,49,080,40,,,,,1*46
$GAGSV,1,1,01,07,87,340,37,,,,,,,,,,,,,7*49
$GNGST,112414.60,0.000,,,,0.123,0.203,0.367*61
$GNVTG,,T,,M,0.36,N,0.66,K,A*38
$GNRMC,112414.80,A,1221.4952296,N,07635.7721666,E,0.15,,270718,,,D*5A
$GNGGA,112414.80,1221.4952296,N,07635.7721666,E,5,07,0.7,790.402,M,-88.379,M,0.8,*76
$GPGSA,A,3,10,15,20,25,29,41,,,,,,,5.4,2.7,4.6*3A
$GLGSA,A,3,70,71,84,,,,,,,,,,0.0,0.0,0.0*23
$GAGSA,A,3,07,,,,,,,,,,,,0.0,0.0,0.0*24
$GPGSV,2,1,06,10,21,253,36,15,65,075,41,20,37,279,38,25,28,206,44,1*6A
$GPGSV,2,2,06,29,81,013,40,41,74,152,41,,,,,,,,,1*63
$GLGSV,1,1,03,70,61,350,35,71,51,236,38,84,49,080,40,,,,,1*48
$GAGSV,1,1,01,07,87,340,37,,,,,,,,,,,,,7*49
$GNGST,112414.80,0.000,,,,0.123,0.202,0.366*6F
$GNVTG,,T,,M,0.15,N,0.28,K,A*33
$GNRMC,112415.00,A,1221.4952418,N,07635.7721699,E,0.29,,270718,,,D*5C
$GNGGA,112415.00,1221.4952418,N,07635.7721699,E,5,07,0.7,790.454,M,-88.379,M,1.0,*75
$GPGSA,A,3,10,15,20,25,29,41,,,,,,,5.4,2.7,4.6*3A
$GLGSA,A,3,70,71,84,,,,,,,,,,0.0,0.0,0.0*23
$GAGSA,A,3,07,,,,,,,,,,,,0.0,0.0,0.0*24
$GPGSV,2,1,06,10,21,253,35,15,65,075,43,20,37,279,38,25,28,206,44,1*6B
$GPGSV,2,2,06,29,81,013,40,41,74,152,41,,,,,,,,,1*63
$GLGSV,1,1,03,70,61,350,35,71,51,236,36,84,49,080,40,,,,,1*46
$GAGSV,1,1,01,07,87,340,37,,,,,,,,,,,,,7*49
$GNGST,112415.00,0.000,,,,0.123,0.202,0.365*65
$GNVTG,,T,,M,0.29,N,0.53,K,A*30
$GNRMC,112415.20,A,1221.4952460,N,07635.7721779,E,0.16,,270718,,,D*52
$GNGGA,112415.20,1221.4952460,N,07635.7721779,E,5,07,0.7,790.493,M,-88.379,M,1.2,*7E
$GPGSA,A,3,10,15,20,25,29,41,,,,,,,5.4,2.7,4.6*3A
$GLGSA,A,3,70,71,84,,,,,,,,,,0.0,0.0,0.0*23
$GAGSA,A,3,07,,,,,,,,,,,,0.0,0.0,0.0*24
$GPGSV,2,1,06,10,21,253,35,15,65,075,44,20,37,279,38,25,28,206,44,1*6C
$GPGSV,2,2,06,29,81,013,40,41,74,152,41,,,,,,,,,1*63
$GLGSV,1,1,03,70,61,350,35,71,51,236,36,84,49,080,40,,,,,1*46
$GAGSV,1,1,01,07,87,340,37,,,,,,,,,,,,,7*49
$GNGST,112415.20,0.000,,,,0.123,0.202,0.364*66
$GNVTG,,T,,M,0.16,N,0.30,K,A*39
$GNRMC,112415.40,A,1221.4952483,N,07635.7721903,E,0.16,,270718,,,D*5A
$GNGGA,112415.40,1221.4952483,N,07635.7721903,E,5,07,0.7,790.558,M,-88.379,M,1.4,*76
$GPGSA,A,3,10,15,20,25,29,41,,,,,,,5.4,2.7,4.6*3A
$GLGSA,A,3,70,71,84,,,,,,,,,,0.0,0.0,0.0*23
$GAGSA,A,3,07,,,,,,,,,,,,0.0,0.0,0.0*24
$GPGSV,2,1,06,10,21,253,35,15,65,075,45,20,37,279,38,25,28,206,45,1*6C
$GPGSV,2,2,06,29,81,013,40,41,74,152,41,,,,,,,,,1*63
$GLGSV,1,1,03,70,61,350,35,71,51,236,38,84,49,080,40,,,,,1*48
$GAGSV,1,1,01,07,87,340,37,,,,,,,,,,,,,7*49
$GNGST,112415.40,0.000,,,,0.123,0.201,0.364*63
$GNVTG,,T,,M,0.16,N,0.29,K,A*31
$GNRMC,112415.60,A,1221.4952548,N,07635.7722132,E,0.52,,270718,,,D*57
$GNGGA,112415.60,1221.4952548,N,07635.7722132,E,5,07,0.7,790.621,M,-88.379,M,0.6,*75
$GPGSA,A,3,15,20,25,29,41,,,,,,,,5.8,2.8,5.1*3E
$GLGSA,A,3,70,71,84,,,,,,,,,,0.0,0.0,0.0*23
$GAGSA,A,3,07,,,,,,,,,,,,0.0,0.0,0.0*24
$GPGSV,2,1,05,15,65,075,48,20,37,279,36,25,28,206,47,29,81,013,44,1*6E
$GPGSV,2,2,05,41,74,152,43,,,,,,,,,,,,,1*56
$GLGSV,1,1,03,70,61,350,35,71,51,236,44,84,49,080,40,,,,,1*43
$GAGSV,1,1,01,07,87,340,36,,,,,,,,,,,,,7*48
$GNGST,112415.60,0.000,,,,0.122,0.201,0.363*67
$GNVTG,,T,,M,0.52,N,0.97,K,A*34
$GNRMC,112415.80,A,1221.4952493,N,07635.7722445,E,0.65,,270718,,,D*5F
$GNGGA,112415.80,1221.4952493,N,07635.7722445,E,5,07,0.7,790.705,M,-88.379,M,0.8,*70
$GPGSA,A,3,15,20,25,29,41,,,,,,,,5.8,2.8,5.1*3E
$GLGSA,A,3,70,71,84,,,,,,,,,,0.0,0.0,0.0*23
$GPGSV,2,1,05,15,65,075,50,20,37,279,36,25,28,206,47,29,81,013,47,1*64
$GPGSV,2,2,05,41,74,152,42,,,,,,,,,,,,,1*57
$GLGSV,1,1,03,70,61,350,35,71,51,236,45,84,49,080,42,,,,,1*40
$GNGST,112415.80,0.000,,,,0.122,0.201,0.363*69
$GNVTG,,T,,M,0.65,N,1.20,K,A*3D
$GNRMC,112416.00,A,1221.4952290,N,07635.7722806,E,0.97,,270718,,,D*57
$GNGGA,112416.00,1221.4952290,N,07635.7722806,E,5,05,0.7,790.786,M,-88.379,M,1.0,*75
$GPGSA,A,3,15,25,29,41,,,,,,,,,7.2,4.6,5.5*38
$GLGSA,A,3,71,84,,,,,,,,,,,0.0,0.0,0.0*24
$GAGSA,A,3,07,,,,,,,,,,,,0.0,0.0,0.0*24
$GPGSV,1,1,04,15,65,075,47,25,28,206,42,29,81,013,47,41,74,152,41,1*6F
$GLGSV,1,1,02,71,51,236,42,84,49,080,44,,,,,,,,,1*70
$GAGSV,1,1,01,07,87,340,39,,,,,,,,,,,,,7*47
$GNGST,112416.00,0.000,,,,0.123,0.203,0.368*6A
$GNVTG,,T,,M,0.97,N,1.80,K,A*3A
$GNRMC,112416.20,A,1221.4952077,N,07635.7723118,E,0.88,,270718,,,D*57
$GNGGA,112416.20,1221.4952077,N,07635.7723118,E,5,05,0.7,790.895,M,-88.379,M,1.2,*74
$GPGSA,A,3,10,15,29,41,,,,,,,,,6.5,4.2,5.0*39
$GLGSA,A,3,71,84,,,,,,,,,,,0.0,0.0,0.0*24
$GAGSA,A,3,07,,,,,,,,,,,,0.0,0.0,0.0*24
$GPGSV,1,1,04,10,21,253,35,15,65,075,46,29,81,013,44,41,74,152,39,1*6D
$GLGSV,1,1,02,71,51,236,40,84,49,080,41,,,,,,,,,1*77
$GAGSV,1,1,01,07,87,340,39,,,,,,,,,,,,,7*47
$GNGST,112416.20,0.000,,,,0.128,0.205,0.396*64
$GNVTG,,T,,M,0.88,N,1.63,K,A*39
$GNRMC,112416.40,A,1221.4951878,N,07635.7723282,E,0.80,,270718,,,D*5D
$GNGGA,112416.40,1221.4951878,N,07635.7723282,E,5,05,0.7,790.807,M,-88.379,M,1.4,*7B
$GPGSA,A,3,10,15,29,41,,,,,,,,,6.5,4.2,5.0*39
$GLGSA,A,3,71,84,,,,,,,,,,,0.0,0.0,0.0*24
$GAGSA,A,3,07,,,,,,,,,,,,0.0,0.0,0.0*24
$GPGSV,1,1,04,10,21,253,35,15,65,075,45,29,81,013,44,41,74,152,42,1*62
$GLGSV,1,1,02,71,51,236,40,84,49,080,38,,,,,,,,,1*79
$GAGSV,1,1,01,07,87,340,39,,,,,,,,,,,,,7*47
$GNGST,112416.40,0.000,,,,0.128,0.204,0.416*6C
$GNVTG,,T,,M,0.80,N,1.48,K,A*38
$GNRMC,112416.60,A,1221.4952179,N,07635.7722967,E,0.86,,270718,,,D*53
$GNGGA,112416.60,1221.4952179,N,07635.7722967,E,5,05,0.7,790.615,M,-88.379,M,1.6,*7C
$GPGSA,A,3,15,25,29,41,,,,,,,,,7.2,4.6,5.5*38
$GLGSA,A,3,71,84,,,,,,,,,,,0.0,0.0,0.0*24
$GAGSA,A,3,07,,,,,,,,,,,,0.0,0.0,0.0*24
$GPGSV,1,1,04,15,65,075,47,25,28,206,37,29,81,013,50,41,74,152,45,1*6F
$GLGSV,1,1,02,71,51,236,41,84,49,080,36,,,,,,,,,1*76
$GAGSV,1,1,01,07,87,340,43,,,,,,,,,,,,,7*4A
$GNGST,112416.60,0.000,,,,0.129,0.205,0.427*6C
$GNVTG,,T,,M,0.86,N,1.58,K,A*3F
$GNRMC,112416.80,A,1221.4952444,N,07635.7722959,E,0.78,,270718,,,D*5A
$GNGGA,112416.80,1221.4952444,N,07635.7722959,E,5,06,0.7,790.631,M,-88.379,M,1.8,*7F
$GPGSA,A,3,10,15,20,25,29,41,,,,,,,5.4,2.7,4.6*3A
$GLGSA,A,3,70,71,84,,,,,,,,,,0.0,0.0,0.0*23
$GAGSA,A,3,07,,,,,,,,,,,,0.0,0.0,0.0*24
$GPGSV,2,1,06,10,21,253,35,15,65,075,51,20,37,279,43,25,28,206,46,1*66
$GPGSV,2,2,06,29,81,013,52,41,74,152,49,,,,,,,,,1*68
$GLGSV,1,1,03,70,61,350,35,71,51,236,47,84,49,080,43,,,,,1*43
$GAGSV,1,1,01,07,87,340,46,,,,,,,,,,,,,7*4F
$GNGST,112416.80,0.000,,,,0.127,0.204,0.411*68
$GNVTG,,T,,M,0.78,N,1.45,K,A*32
$GNRMC,112417.00,A,1221.4952400,N,07635.7722897,E,0.49,,270718,,,D*52
$GNGGA,112417.00,1221.4952400,N,07635.7722897,E,5,07,0.7,790.638,M,-88.379,M,2.0,*76
$GPGSA,A,3,10,15,20,25,29,41,,,,,,,5.4,2.7,4.6*3A
$GLGSA,A,3,70,71,84,,,,,,,,,,0.0,0.0,0.0*23
$GAGSA,A,3,07,,,,,,,,,,,,0.0,0.0,0.0*24
$GPGSV,2,1,06,10,21,253,35,15,65,075,49,20,37,279,42,25,28,206,46,1*6E
$GPGSV,2,2,06,29,81,013,51,41,74,152,48,,,,,,,,,1*6A
$GLGSV,1,1,03,70,61,350,35,71,51,236,48,84,49,080,42,,,,,1*4D
$GAGSV,1,1,01,07,87,340,44,,,,,,,,,,,,,7*4D
$GNGST,112417.00,0.000,,,,0.125,0.203,0.403*67
$GNVTG,,T,,M,0.49,N,0.91,K,A*38
$GNRMC,112417.20,A,1221.4952323,N,07635.7722753,E,0.57,,270718,,,D*5E
$GNGGA,112417.20,1221.4952323,N,07635.7722753,E,5,07,0.7,790.717,M,-88.379,M,2.2,*7B
$GPGSA,A,3,10,15,20,25,29,41,,,,,,,5.4,2.7,4.6*3A
$GLGSA,A,3,70,71,84,,,,,,,,,,0.0,0.0,0.0*23
$GAGSA,A,3,07,,,,,,,,,,,,0.0,0.0,0.0*24
$GPGSV,2,1,06,10,21,253,35,15,65,075,48,20,37,279,43,25,28,206,44,1*6C
$GPGSV,2,2,06,29,81,013,51,41,74,152,47,,,,,,,,,1*65
$GLGSV,1,1,03,70,61,350,35,71,51,236,46,84,49,080,40,,,,,1*41
$GAGSV,1,1,01,07,87,340,44,,,,,,,,,,,,,7*4D
$GNGST,112417.20,0.000,,,,0.124,0.201,0.383*69
$GNVTG,,T,,M,0.57,N,1.05,K,A*3B
$GNRMC,112417.40,A,1221.4952359,N,07635.7722573,E,0.38,,270718,,,D*5C
$GNGGA,112417.40,1221.4952359,N,07635.7722573,E,5,07,0.7,790.776,M,-88.379,M,2.4,*71
$GPGSA,A,3,10,15,20,25,29,41,,,,,,,5.4,2.7,4.6*3A
$GLGSA,A,3,70,71,84,,,,,,,,,,0.0,0.0,0.0*23
$GAGSA,A,3,07,,,,,,,,,,,,0.0,0.0,0.0*24
$GPGSV,2,1,06,10,21,253,35,15,65,075,48,20,37,279,44,25,28,206,44,1*6B
$GPGSV,2,2,06,29,81,013,50,41,74,152,46,,,,,,,,,1*65
$GLGSV,1,1,03,70,61,350,35,71,51,236,46,84,49,080,40,,,,,1*41
$GAGSV,1,1,01,07,87,340,44,,,,,,,,,,,,,7*4D
$GNGST,112417.40,0.000,,,,0.123,0.201,0.377*63
$GNVTG,,T,,M,0.38,N,0.70,K,A*31
$GNRMC,112417.60,A,1221.4952503,N,07635.7722392,E,0.29,,270718,,,D*5E
$GNGGA,112417.60,1221.4952503,N,07635.7722392,E,5,07,0.7,790.728,M,-88.379,M,0.6,*78
$GPGSA,A,3,10,15,20,25,29,41,,,,,,,5.4,2.7,4.6*3A
$GLGSA,A,3,70,71,84,,,,,,,,,,0.0,0.0,0.0*23
$GAGSA,A,3,07,,,,,,,,,,,,0.0,0.0,0.0*24
$GPGSV,2,1,06,10,21,253,35,15,65,075,49,20,37,279,44,25,28,206,46,1*68
$GPGSV,2,2,06,29,81,013,51,41,74,152,47,,,,,,,,,1*65
$GLGSV,1,1,03,70,61,350,37,71,51,236,47,84,49,080,41,,,,,1*43
$GAGSV,1,1,01,07,87,340,45,,,,,,,,,,,,,7*4C
$GNGST,112417.60,0.000,,,,0.123,0.200,0.373*64
$GNVTG,,T,,M,0.29,N,0.54,K,A*37
$GNRMC,112417.80,A,1221.4952660,N,07635.7722212,E,0.36,,270718,,,D*51
$GNGGA,112417.80,1221.4952660,N,07635.7722212,E,5,07,0.7,790.668,M,-88.379,M,0.8,*72
$GPGSA,A,3,10,15,20,25,29,41,,,,,,,5.4,2.7,4.6*3A
$GLGSA,A,3,70,71,84,,,,,,,,,,0.0,0.0,0.0*23
$GAGSA,A,3,07,,,,,,,,,,,,0.0,0.0,0.0*24
$GPGSV,2,1,06,10,21,253,35,15,65,075,47,20,37,279,44,25,28,206,46,1*66
$GPGSV,2,2,06,29,81,013,50,41,74,152,47,,,,,,,,,1*64
$GLGSV,1,1,03,70,61,350,35,71,51,236,46,84,49,081,40,,,,,1*40
$GAGSV,1,1,01,07,87,340,45,,,,,,,,,,,,,7*4C
$GNGST,112417.80,0.000,,,,0.122,0.200,0.370*68
$GNVTG,,T,,M,0.36,N,0.67,K,A*39
$GNRMC,112418.00,A,1221.4952667,N,07635.7722108,E,0.22,,270718,,,D*5C
$GNGGA,112418.00,1221.4952667,N,07635.7722108,E,5,07,0.7,790.639,M,-88.379,M,1.0,*77
$GPGSA,A,3,15,20,25,29,41,,,,,,,,5.8,2.8,5.1*3E
$GLGSA,A,3,70,71,84,,,,,,,,,,0.0,0.0,0.0*23
$GAGSA,A,3,07,,,,,,,,,,,,0.0,0.0,0.0*24
$GPGSV,2,1,05,15,65,075,45,20,37,279,42,25,28,206,45,29,81,013,50,1*67
$GPGSV,2,2,05,41,74,152,47,,,,,,,,,,,,,1*52
$GLGSV,1,1,03,70,61,350,35,71,51,236,44,84,49,081,39,,,,,1*4C
$GAGSV,1,1,01,07,87,340,44,,,,,,,,,,,,,7*4D
$GNGST,112418.00,0.000,,,,0.122,0.200,0.369*67
$GNVTG,,T,,M,0.22,N,0.40,K,A*39
$GNRMC,112418.20,A,1221.4952986,N,07635.7721991,E,0.70,,270718,,,D*52
$GNGGA,112418.20,1221.4952986,N,07635.7721991,E,5,06,0.8,790.622,M,-88.379,M,1.2,*78
$GPGSA,A,3,15,20,25,29,41,,,,,,,,5.8,2.8,5.1*3E
$GLGSA,A,3,70,71,,,,,,,,,,,0.0,0.0,0.0*2F
$GAGSA,A,3,07,,,,,,,,,,,,0.0,0.0,0.0*24
$GPGSV,2,1,05,15,65,075,40,20,37,279,36,25,28,206,37,29,81,013,46,1*63
$GPGSV,2,2,05,41,74,152,44,,,,,,,,,,,,,1*51
$GLGSV,1,1,02,70,61,350,35,71,51,236,40,,,,,,,,,1*7B
$GAGSV,1,1,01,07,87,340,41,,,,,,,,,,,,,7*48
$GNGST,112418.20,0.000,,,,0.122,0.202,0.368*66
$GNVTG,,T,,M,0.70,N,1.29,K,A*30
$GNRMC,112418.40,A,1221.4953117,N,07635.7721833,E,0.55,,270718,,,D*5B
$GNGGA,112418.40,1221.4953117,N,07635.7721833,E,5,06,0.8,790.605,M,-88.379,M,0.4,*74
$GPGSA,A,3,10,15,20,25,29,41,,,,,,,5.4,2.7,4.6*3A
$GLGSA,A,3,70,71,,,,,,,,,,,0.0,0.0,0.0*2F
$GAGSA,A,3,07,,,,,,,,,,,,0.0,0.0,0.0*24
$GPGSV,2,1,06,10,21,253,35,15,65,075,40,20,37,279,36,25,28,206,44,1*66
$GPGSV,2,2,06,29,81,013,46,41,74,152,47,,,,,,,,,1*63
$GLGSV,1,1,02,70,61,350,35,71,51,236,44,,,,,,,,,1*7F
$GAGSV,1,1,01,07,87,340,41,,,,,,,,,,,,,7*48
$GNGST,112418.40,0.000,,,,0.122,0.201,0.367*6C
$GNVTG,,T,,M,0.55,N,1.02,K,A*3E
$GNRMC,112418.60,A,1221.4953156,N,07635.7721812,E,0.16,,270718,,,D*58
$GNGGA,112418.60,1221.4953156,N,07635.7721812,E,5,06,0.8,790.608,M,-88.379,M,0.6,*7F
$GPGSA,A,3,15,20,25,29,41,,,,,,,,5.8,2.8,5.1*3E
$GLGSA,A,3,70,71,,,,,,,,,,,0.0,0.0,0.0*2F
$GAGSA,A,3,07,,,,,,,,,,,,0.0,0.0,0.0*24
$GPGSV,2,1,05,15,65,075,40,20,37,279,38,25,28,206,41,29,81,013,46,1*6C
$GPGSV,2,2,05,41,74,152,48,,,,,,,,,,,,,1*5D
$GLGSV,1,1,02,70,61,350,37,71,51,236,45,,,,,,,,,1*7C
$GAGSV,1,1,01,07,87,340,41,,,,,,,,,,,,,7*48
$GNGST,112418.60,0.000,,,,0.122,0.200,0.367*6F
$GNVTG,,T,,M,0.16,N,0.30,K,A*39
$GNRMC,112418.80,A,1221.4953065,N,07635.7721888,E,0.55,,270718,,,D*53
$GNGGA,112418.80,1221.4953065,N,07635.7721888,E,5,06,0.8,790.547,M,-88.379,M,0.8,*75
$GPGSA,A,3,10,15,20,25,29,41,,,,,,,5.4,2.7,4.6*3A
$GLGSA,A,3,70,71,,,,,,,,,,,0.0,0.0,0.0*2F
$GAGSA,A,3,07,,,,,,,,,,,,0.0,0.0,0.0*24
$GPGSV,2,1,06,10,21,253,36,15,65,075,40,20,37,279,35,25,28,206,41,1*63
$GPGSV,2,2,06,29,81,013,47,41,74,152,48,,,,,,,,,1*6D
$GLGSV,1,1,02,70,61,350,37,71,51,236,45,,,,,,,,,1*7C
$GAGSV,1,1,01,07,87,340,41,,,,,,,,,,,,,7*48
$GNGST,112418.80,0.000,,,,0.122,0.199,0.366*63
$GNVTG,,T,,M,0.55,N,1.03,K,A*3F
$GNRMC,112419.00,A,1221.4952815,N,07635.7722102,E,1.08,136.40,270718,,,D*4B
$GNGGA,112419.00,1221.4952815,N,07635.7722102,E,5,06,0.8,790.510,M,-88.379,M,1.0,*71
$GPGSA,A,3,10,15,20,25,29,41,,,,,,,5.4,2.7,4.6*3A
$GLGSA,A,3,70,71,,,,,,,,,,,0.0,0.0,0.0*2F
$GAGSA,A,3,07,,,,,,,,,,,,0.0,0.0,0.0*24
$GPGSV,2,1,06,10,21,253,40,15,65,075,44,20,37,279,36,25,28,206,44,1*60
$GPGSV,2,2,06,29,81,013,49,41,74,152,49,,,,,,,,,1*62
$GLGSV,1,1,02,70,61,350,37,71,51,236,45,,,,,,,,,1*7C
$GAGSV,1,1,01,07,87,340,44,,,,,,,,,,,,,7*4D
$GNGST,112419.00,0.000,,,,0.122,0.199,0.366*6A
$GNVTG,136.40,T,,M,1.08,N,2.00,K,A*28
$GNRMC,112419.20,A,1221.4952491,N,07635.7722599,E,1.55,121.24,270718,,,D*43
$GNGGA,112419.20,1221.4952491,N,07635.7722599,E,5,04,0.8,790.475,M,-88.379,M,1.2,*77
$GPGSA,A,3,15,20,25,29,41,,,,,,,,5.8,2.8,5.1*3E
$GLGSA,A,3,71,,,,,,,,,,,,0.0,0.0,0.0*28
$GAGSA,A,3,07,,,,,,,,,,,,0.0,0.0,0.0*24
$GPGSV,2,1,05,15,65,075,45,20,37,279,38,25,28,206,42,29,81,013,50,1*6D
$GPGSV,2,2,05,41,74,152,49,,,,,,,,,,,,,1*5C
$GLGSV,1,1,01,71,51,236,42,,,,,,,,,,,,,1*4A
$GAGSV,1,1,01,07,87,340,45,,,,,,,,,,,,,7*4C
$GNGST,112419.20,0.000,,,,0.122,0.202,0.366*69
$GNVTG,121.24,T,,M,1.55,N,2.87,K,A*2B
$GNRMC,112419.40,A,1221.4952279,N,07635.7723126,E,1.16,115.62,270718,,,D*46
$GNGGA,112419.40,1221.4952279,N,07635.7723126,E,5,04,0.8,790.426,M,-88.379,M,1.4,*70
$GPGSA,A,3,15,20,25,29,41,,,,,,,,5.8,2.8,5.1*3E
$GLGSA,A,3,71,,,,,,,,,,,,0.0,0.0,0.0*28
$GAGSA,A,3,07,,,,,,,,,,,,0.0,0.0,0.0*24
$GPGSV,2,1,05,15,65,075,45,20,37,279,36,25,28,206,42,29,81,013,50,1*63
$GPGSV,2,2,05,41,74,152,50,,,,,,,,,,,,,1*54
$GLGSV,1,1,01,71,51,236,43,,,,,,,,,,,,,1*4B
$GAGSV,1,1,01,07,87,340,44,,,,,,,,,,,,,7*4D
$GNGST,112419.40,0.000,,,,0.121,0.202,0.365*6F
$GNVTG,115.62,T,,M,1.16,N,2.15,K,A*22
$GNRMC,112419.60,A,1221.4951805,N,07635.7723830,E,1.85,117.20,270718,,,D*46
$GNGGA,112419.60,1221.4951805,N,07635.7723830,E,5,06,0.8,790.421,M,-88.379,M,0.6,*78
$GPGSA,A,3,15,20,25,29,41,,,,,,,,5.8,2.8,5.1*3E
$GLGSA,A,3,70,71,,,,,,,,,,,0.0,0.0,0.0*2F
$GAGSA,A,3,07,,,,,,,,,,,,0.0,0.0,0.0*24
$GPGSV,2,1,05,15,65,075,44,20,37,279,35,25,28,206,44,29,81,013,49,1*6F
$GPGSV,2,2,05,41,74,152,48,,,,,,,,,,,,,1*5D
$GLGSV,1,1,02,70,61,350,35,71,51,236,42,,,,,,,,,1*79
$GAGSV,1,1,01,07,87,340,43,,,,,,,,,,,,,7*4A
$GNGST,112419.60,0.000,,,,0.121,0.199,0.365*6C
$GNVTG,117.20,T,,M,1.85,N,3.43,K,A*2E
$GNRMC,112419.80,A,1221.4951370,N,07635.7724344,E,1.27,138.41,270718,,,D*4C
$GNGGA,112419.80,1221.4951370,N,07635.7724344,E,5,06,0.8,790.423,M,-88.379,M,0.8,*7C
$GPGSA,A,3,15,20,24,25,29,41,,,,,,,3.1,1.9,2.5*36
$GLGSA,A,3,70,71,,,,,,,,,,,0.0,0.0,0.0*2F
$GAGSA,A,3,07,,,,,,,,,,,,0.0,0.0,0.0*24
$GPGSV,2,1,06,15,65,075,46,20,37,279,38,24,17,142,40,25,28,206,42,1*6B
$GPGSV,2,2,06,29,81,014,51,41,74,152,50,,,,,,,,,1*64
$GLGSV,1,1,02,70,61,350,35,71,51,236,43,,,,,,,,,1*78
$GAGSV,1,1,01,07,87,340,45,,,,,,,,,,,,,7*4C
$GNGST,112419.80,0.000,,,,0.121,0.199,0.364*63
$GNVTG,138.41,T,,M,1.27,N,2.34,K,A*2D
$GNRMC,112420.00,A,1221.4951017,N,07635.7724984,E,1.32,119.50,270718,,,D*4D
$GNGGA,112420.00,1221.4951017,N,07635.7724984,E,5,04,0.7,790.416,M,-88.379,M,1.0,*78
$GPGSA,A,3,15,20,24,25,29,41,,,,,,,3.1,1.9,2.5*36
$GLGSA,A,3,71,,,,,,,,,,,,0.0,0.0,0.0*28
$GAGSA,A,3,07,,,,,,,,,,,,0.0,0.0,0.0*24
$GPGSV,2,1,06,15,65,075,46,20,37,279,38,24,17,142,38,25,28,206,46,1*60
$GPGSV,2,2,06,29,81,014,51,41,74,152,50,,,,,,,,,1*64
$GLGSV,1,1,01,71,51,236,41,,,,,,,,,,,,,1*49
$GAGSV,1,1,01,07,87,340,44,,,,,,,,,,,,,7*4D
$GNGST,112420.00,0.000,,,,0.121,0.201,0.364*63
$GNVTG,119.50,T,,M,1.32,N,2.44,K,A*2D
$GNRMC,112420.20,A,1221.4950495,N,07635.7725523,E,1.21,137.87,270718,,,D*44
$GNGGA,112420.20,1221.4950495,N,07635.7725523,E,5,04,0.7,790.400,M,-88.379,M,1.2,*70
$GPGSA,A,3,15,20,24,25,29,41,,,,,,,3.1,1.9,2.5*36
$GLGSA,A,3,71,,,,,,,,,,,,0.0,0.0,0.0*28
$GAGSA,A,3,07,,,,,,,,,,,,0.0,0.0,0.0*24
$GPGSV,2,1,06,15,65,075,45,20,37,279,37,24,17,142,38,25,28,206,44,1*6E
$GPGSV,2,2,06,29,81,014,50,41,74,152,50,,,,,,,,,1*65
$GLGSV,1,1,01,71,51,236,40,,,,,,,,,,,,,1*48
$GAGSV,1,1,01,07,87,340,44,,,,,,,,,,,,,7*4D
$GNGST,112420.20,0.000,,,,0.121,0.202,0.364*62
$GNVTG,137.87,T,,M,1.21,N,2.24,K,A*2F
$GNRMC,112420.40,A,1221.4949681,N,07635.7726220,E,1.90,138.77,270718,,,D*40
$GNGGA,112420.40,1221.4949681,N,07635.7726220,E,5,07,0.7,790.357,M,-88.379,M,0.4,*7F
$GPGSA,A,3,15,20,24,25,29,41,,,,,,,3.1,1.9,2.5*36
$GLGSA,A,3,71,84,,,,,,,,,,,0.0,0.0,0.0*24
$GAGSA,A,3,07,,,,,,,,,,,,0.0,0.0,0.0*24
$GPGSV,2,1,06,15,65,075,46,20,37,279,38,24,17,142,36,25,28,206,40,1*68
$GPGSV,2,2,06,29,81,014,51,41,74,152,50,,,,,,,,,1*64
$GLGSV,1,1,02,71,51,236,40,84,49,081,36,,,,,,,,,1*76
$GAGSV,1,1,01,07,87,340,45,,,,,,,,,,,,,7*4C
$GNGST,112420.40,0.000,,,,0.121,0.202,0.363*63
$GNVTG,138.77,T,,M,1.90,N,3.52,K,A*25
$GNRMC,112420.60,A,1221.4949191,N,07635.7726961,E,1.65,122.97,270718,,,D*45
$GNGGA,112420.60,1221.4949191,N,07635.7726961,E,5,05,0.7,790.377,M,-88.379,M,0.6,*77
$GPGSA,A,3,15,20,24,25,29,41,,,,,,,3.1,1.9,2.5*36
$GLGSA,A,3,71,,,,,,,,,,,,0.0,0.0,0.0*28
$GAGSA,A,3,07,,,,,,,,,,,,0.0,0.0,0.0*24
$GPGSV,2,1,06,15,65,075,46,20,37,279,38,24,17,142,36,25,28,206,44,1*6C
$GPGSV,2,2,06,29,81,014,50,41,74,152,50,,,,,,,,,1*65
$GLGSV,1,1,01,71,51,236,42,,,,,,,,,,,,,1*4A
$GAGSV,1,1,01,07,87,340,45,,,,,,,,,,,,,7*4C
$GNGST,112420.60,0.000,,,,0.120,0.201,0.362*62
$GNVTG,122.97,T,,M,1.65,N,3.05,K,A*28
$GNRMC,112420.80,A,1221.4948815,N,07635.7727704,E,1.34,110.15,270718,,,D*4C
$GNGGA,112420.80,1221.4948815,N,07635.7727704,E,5,05,0.7,790.379,M,-88.379,M,0.8,*71
$GPGSA,A,3,15,20,24,25,29,41,,,,,,,3.1,1.9,2.5*36
$GLGSA,A,3,71,,,,,,,,,,,,0.0,0.0,0.0*28
$GAGSA,A,3,07,,,,,,,,,,,,0.0,0.0,0.0*24
$GPGSV,2,1,06,15,65,075,46,20,37,279,38,24,17,142,36,25,28,206,43,1*6B
$GPGSV,2,2,06,29,81,014,50,41,74,152,50,,,,,,,,,1*65
$GLGSV,1,1,01,71,51,236,43,,,,,,,,,,,,,1*4B
$GAGSV,1,1,01,07,87,340,46,,,,,,,,,,,,,7*4F
$GNGST,112420.80,0.000,,,,0.120,0.200,0.361*6E
$GNVTG,110.15,T,,M,1.34,N,2.49,K,A*2E
$GNRMC,112421.00,A,1221.4948551,N,07635.7728600,E,1.71,102.06,270718,,,D*42
$GNGGA,112421.00,1221.4948551,N,07635.7728600,E,5,05,0.7,790.354,M,-88.379,M,1.0,*79
$GPGSA,A,3,15,20,24,25,29,41,,,,,,,3.1,1.9,2.5*36
$GLGSA,A,3,71,,,,,,,,,,,,0.0,0.0,0.0*28
$GAGSA,A,3,07,,,,,,,,,,,,0.0,0.0,0.0*24
$GPGSV,2,1,06,15,65,075,46,20,37,279,36,24,17,142,36,25,28,206,45,1*63
$GPGSV,2,2,06,29,81,014,50,41,74,152,49,,,,,,,,,1*6D
$GLGSV,1,1,01,71,51,236,43,,,,,,,,,,,,,1*4B
$GAGSV,1,1,01,07,87,340,45,,,,,,,,,,,,,7*4C
$GNGST,112421.00,0.000,,,,0.120,0.200,0.361*67
$GNVTG,102.06,T,,M,1.71,N,3.16,K,A*25
$GNRMC,112421.20,A,1221.4948166,N,07635.7729623,E,2.13,106.95,270718,,,D*49
$GNGGA,112421.20,1221.4948166,N,07635.7729623,E,5,04,0.7,790.347,M,-88.379,M,1.2,*7A
$GPGSA,A,3,10,15,20,25,29,41,,,,,,,5.4,2.7,4.6*3A
$GLGSA,A,3,71,,,,,,,,,,,,0.0,0.0,0.0*28
$GAGSA,A,3,07,,,,,,,,,,,,0.0,0.0,0.0*24
$GPGSV,2,1,06,10,21,253,35,15,65,075,46,20,37,279,36,25,28,206,40,1*64
$GPGSV,2,2,06,29,81,014,50,41,74,152,49,,,,,,,,,1*6D
$GLGSV,1,1,01,71,51,236,43,,,,,,,,,,,,,1*4B
$GAGSV,1,1,01,07,87,340,45,,,,,,,,,,,,,7*4C
$GNGST,112421.20,0.000,,,,0.120,0.201,0.361*64
$GNVTG,106.95,T,,M,2.13,N,3.95,K,A*27
$GNRMC,112421.40,A,1221.4947691,N,07635.7730430,E,1.57,122.99,270718,,,D*4E
$GNGGA,112421.40,1221.4947691,N,07635.7730430,E,5,04,0.7,790.387,M,-88.379,M,1.4,*7E
$GPGSA,A,3,10,15,20,25,29,41,,,,,,,5.4,2.7,4.6*3A
$GLGSA,A,3,71,,,,,,,,,,,,0.0,0.0,0.0*28
$GAGSA,A,3,07,,,,,,,,,,,,0.0,0.0,0.0*24
$GPGSV,2,1,06,10,21,253,35,15,65,075,46,20,37,279,36,25,28,206,45,1*61
$GPGSV,2,2,06,29,81,014,50,41,74,152,48,,,,,,,,,1*6C
$GLGSV,1,1,01,71,51,236,43,,,,,,,,,,,,,1*4B
$GAGSV,1,1,01,07,87,340,44,,,,,,,,,,,,,7*4D
$GNGST,112421.40,0.000,,,,0.120,0.202,0.361*61
$GNVTG,122.99,T,,M,1.57,N,2.92,K,A*28
$GNRMC,112421.60,A,1221.4947142,N,07635.7731259,E,1.62,130.83,270718,,,D*43
$GNGGA,112421.60,1221.4947142,N,07635.7731259,E,5,04,0.7,790.371,M,-88.379,M,1.6,*76
$GPGSA,A,3,15,20,25,29,41,,,,,,,,5.8,2.8,5.1*3E
$GLGSA,A,3,71,,,,,,,,,,,,0.0,0.0,0.0*28
$GAGSA,A,3,07,,,,,,,,,,,,0.0,0.0,0.0*24
$GPGSV,2,1,05,15,65,075,46,20,37,279,36,25,28,206,40,29,81,014,50,1*65
$GPGSV,2,2,05,41,74,152,49,,,,,,,,,,,,,1*5C
$GLGSV,1,1,01,71,51,236,42,,,,,,,,,,,,,1*4A
$GAGSV,1,1,01,07,87,340,44,,,,,,,,,,,,,7*4D
$GNGST,112421.60,0.004,,,,0.120,0.202,0.360*66
$GNVTG,130.83,T,,M,1.62,N,2.99,K,A*2D
$GNRMC,112421.80,A,1221.4946498,N,07635.7732030,E,1.81,138.33,270718,,,D*4E
$GNGGA,112421.80,1221.4946498,N,07635.7732030,E,5,06,0.7,790.375,M,-88.379,M,1.8,*7D
$GPGSA,A,3,10,15,20,25,29,41,,,,,,,5.4,2.7,4.6*3A
$GLGSA,A,3,71,84,,,,,,,,,,,0.0,0.0,0.0*24
$GAGSA,A,3,07,,,,,,,,,,,,0.0,0.0,0.0*24
$GPGSV,2,1,06,10,21,253,37,15,65,075,47,20,37,279,36,25,28,206,37,1*67
$GPGSV,2,2,06,29,81,014,50,41,74,152,49,,,,,,,,,1*6D
$GLGSV,1,1,02,71,51,236,42,84,49,081,35,,,,,,,,,1*77
$GAGSV,1,1,01,07,87,340,44,,,,,,,,,,,,,7*4D
$GNGST,112421.80,0.000,,,,0.120,0.201,0.360*6F
$GNVTG,138.33,T,,M,1.81,N,3.35,K,A*24
$GNRMC,112422.00,A,1221.4945969,N,07635.7732721,E,1.60,138.09,270718,,,D*44
$GNGGA,112422.00,1221.4945969,N,07635.7732721,E,5,06,0.7,790.400,M,-88.379,M,2.0,*7F
$GPGSA,A,3,10,15,20,25,29,41,,,,,,,5.4,2.7,4.6*3A
$GLGSA,A,3,71,84,,,,,,,,,,,0.0,0.0,0.0*24
$GAGSA,A,3,07,,,,,,,,,,,,0.0,0.0,0.0*24
$GPGSV,2,1,06,10,21,253,39,15,65,075,45,20,37,279,36,25,28,206,39,1*65
$GPGSV,2,2,06,29,81,014,50,41,74,152,49,,,,,,,,,1*6D
$GLGSV,1,1,02,71,51,236,42,84,49,081,35,,,,,,,,,1*77
$GAGSV,1,1,01,07,87,340,44,,,,,,,,,,,,,7*4D
$GNGST,112422.00,0.000,,,,0.120,0.200,0.359*6F
$GNVTG,138.09,T,,M,1.60,N,2.95,K,A*29
$GNRMC,112422.20,A,1221.4945393,N,07635.7733392,E,1.55,139.97,270718,,,D*44
$GNGGA,112422.20,1221.4945393,N,07635.7733392,E,5,06,0.7,790.412,M,-88.379,M,2.2,*7E
$GPGSA,A,3,10,15,20,25,29,41,,,,,,,5.4,2.7,4.6*3A
$GLGSA,A,3,71,84,,,,,,,,,,,0.0,0.0,0.0*24
$GAGSA,A,3,07,,,,,,,,,,,,0.0,0.0,0.0*24
$GPGSV,2,1,06,10,21,253,35,15,65,075,46,20,37,279,36,25,28,206,41,1*65
$GPGSV,2,2,06,29,81,014,50,41,74,152,48,,,,,,,,,1*6C
$GLGSV,1,1,02,71,51,236,42,84,49,081,35,,,,,,,,,1*77
$GAGSV,1,1,01,07,87,340,44,,,,,,,,,,,,,7*4D
$GNGST,112422.20,0.000,,,,0.119,0.200,0.359*67
$GNVTG,139.97,T,,M,1.55,N,2.87,K,A*2A
$GNRMC,112422.40,A,1221.4944839,N,07635.7734019,E,1.37,139.09,270718,,,D*4C
$GNGGA,112422.40,1221.4944839,N,07635.7734019,E,5,07,0.7,790.393,M,-88.379,M,2.4,*7C
$GPGSA,A,3,10,15,20,25,29,41,,,,,,,5.4,2.7,4.6*3A
$GLGSA,A,3,70,71,84,,,,,,,,,,0.0,0.0,0.0*23
$GAGSA,A,3,07,,,,,,,,,,,,0.0,0.0,0.0*24
$GPGSV,2,1,06,10,21,253,37,15,65,075,47,20,37,279,36,25,28,206,44,1*63
$GPGSV,2,2,06,29,81,014,50,41,74,152,48,,,,,,,,,1*6C
$GLGSV,1,1,03,70,61,350,36,71,51,236,42,84,49,081,35,,,,,1*45
$GAGSV,1,1,01,07,87,340,44,,,,,,,,,,,,,7*4D
$GNGST,112422.40,0.000,,,,0.119,0.198,0.358*62
$GNVTG,139.09,T,,M,1.37,N,2.55,K,A*26
$GNRMC,112422.60,A,1221.4944282,N,07635.7734739,E,1.61,126.48,270718,,,D*49
$GNGGA,112422.60,1221.4944282,N,07635.7734739,E,5,07,0.7,790.392,M,-88.379,M,2.6,*72
$GPGSA,A,3,10,15,20,25,29,41,,,,,,,5.4,2.7,4.6*3A
$GLGSA,A,3,70,71,84,,,,,,,,,,0.0,0.0,0.0*23
$GAGSA,A,3,07,,,,,,,,,,,,0.0,0.0,0.0*24
$GPGSV,2,1,06,10,21,253,35,15,65,075,47,20,37,279,36,25,28,206,41,1*64
$GPGSV,2,2,06,29,81,014,50,41,74,152,48,,,,,,,,,1*6C
$GLGSV,1,1,03,70,61,350,35,71,51,236,44,84,49,081,35,,,,,1*40
$GAGSV,1,1,01,07,87,340,43,,,,,,,,,,,,,7*4A
$GNGST,112422.60,0.000,,,,0.119,0.198,0.358*60
$GNVTG,126.48,T,,M,1.61,N,2.98,K,A*2F
$GNRMC,112422.80,A,1221.4943647,N,07635.7735339,E,1.47,140.46,270718,,,D*42
$GNGGA,112422.80,1221.4943647,N,07635.7735339,E,5,07,0.7,790.424,M,-88.379,M,2.8,*77
$GPGSA,A,3,10,15,20,25,29,41,,,,,,,5.4,2.7,4.6*3A
$GLGSA,A,3,70,71,84,,,,,,,,,,0.0,0.0,0.0*23
$GAGSA,A,3,07,,,,,,,,,,,,0.0,0.0,0.0*24
$GPGSV,2,1,06,10,21,253,37,15,65,075,46,20,37,279,38,25,28,206,43,1*6B
$GPGSV,2,2,06,29,81,014,50,41,74,152,49,,,,,,,,,1*6D
$GLGSV,1,1,03,70,61,350,35,71,51,236,43,84,49,081,35,,,,,1*47
$GAGSV,1,1,01,07,87,340,44,,,,,,,,,,,,,7*4D
$GNGST,112422.80,0.000,,,,0.119,0.197,0.358*61
$GNVTG,140.46,T,,M,1.47,N,2.72,K,A*21
$GNRMC,112423.00,A,1221.4943016,N,07635.7735785,E,1.24,159.10,270718,,,D*44
$GNGGA,112423.00,1221.4943016,N,07635.7735785,E,5,07,0.7,790.421,M,-88.379,M,3.0,*73
$GPGSA,A,3,10,15,20,25,29,41,,,,,,,5.4,2.7,4.6*3A
$GLGSA,A,3,70,71,84,,,,,,,,,,0.0,0.0,0.0*23
$GAGSA,A,3,07,,,,,,,,,,,,0.0,0.0,0.0*24
$GPGSV,2,1,06,10,21,253,38,15,65,075,45,20,37,279,38,25,28,206,40,1*64
$GPGSV,2,2,06,29,81,014,50,41,74,152,48,,,,,,,,,1*6C
$GLGSV,1,1,03,70,61,350,35,71,51,236,43,84,49,081,35,,,,,1*47
$GAGSV,1,1,01,07,87,340,44,,,,,,,,,,,,,7*4D
$GNGST,112423.00,0.000,,,,0.119,0.197,0.357*67
$GNVTG,159.10,T,,M,1.24,N,2.29,K,A*21
$GNRMC,112423.20,A,1221.4942186,N,07635.7736246,E,1.75,158.66,270718,,,D*42
$GNGGA,112423.20,1221.4942186,N,07635.7736246,E,5,07,0.7,790.408,M,-88.379,M,3.2,*78
$GPGSA,A,3,10,15,20,25,29,41,,,,,,,5.4,2.7,4.6*3A
$GLGSA,A,3,70,71,84,,,,,,,,,,0.0,0.0,0.0*23
$GAGSA,A,3,07,,,,,,,,,,,,0.0,0.0,0.0*24
$GPGSV,2,1,06,10,21,253,36,15,65,075,45,20,37,279,36,25,28,206,41,1*65
$GPGSV,2,2,06,29,81,014,48,41,74,152,48,,,,,,,,,1*65
$GLGSV,1,1,03,70,61,350,35,71,51,236,43,84,49,081,35,,,,,1*47
$GAGSV,1,1,01,07,87,340,42,,,,,,,,,,,,,7*4B
$GNGST,112423.20,0.000,,,,0.119,0.197,0.357*65
$GNVTG,158.66,T,,M,1.75,N,3.25,K,A*28
$GNRMC,112423.40,A,1221.4941353,N,07635.7736671,E,1.77,156.29,270718,,,D*4A
$GNGGA,112423.40,1221.4941353,N,07635.7736671,E,5,06,0.7,790.397,M,-88.379,M,3.4,*71
$GPGSA,A,3,10,15,20,25,29,41,,,,,,,5.4,2.7,4.6*3A
$GLGSA,A,3,70,71,,,,,,,,,,,0.0,0.0,0.0*2F
$GAGSA,A,3,07,,,,,,,,,,,,0.0,0.0,0.0*24
$GPGSV,2,1,06,10,21,253,36,15,65,075,44,20,37,279,36,25,28,206,44,1*61
$GPGSV,2,2,06,29,81,014,49,41,74,152,48,,,,,,,,,1*64
$GLGSV,1,1,02,70,61,350,35,71,51,236,42,,,,,,,,,1*79
$GAGSV,1,1,01,07,87,340,43,,,,,,,,,,,,,7*4A
$GNGST,112423.40,0.000,,,,0.119,0.197,0.358*6C
$GNVTG,156.29,T,,M,1.77,N,3.28,K,A*22
$GNRMC,112423.60,A,1221.4940549,N,07635.7737018,E,1.61,157.10,270718,,,D*40
$GNGGA,112423.60,1221.4940549,N,07635.7737018,E,5,06,0.7,790.457,M,-88.379,M,0.6,*7D
$GPGSA,A,3,15,20,25,29,41,,,,,,,,5.8,2.8,5.1*3E
$GLGSA,A,3,70,71,,,,,,,,,,,0.0,0.0,0.0*2F
$GAGSA,A,3,07,,,,,,,,,,,,0.0,0.0,0.0*24
$GPGSV,2,1,05,15,65,075,43,20,37,279,36,25,28,206,43,29,81,014,48,1*6A
$GPGSV,2,2,05,41,74,152,48,,,,,,,,,,,,,1*5D
$GLGSV,1,1,02,70,61,350,35,71,51,236,43,,,,,,,,,1*78
$GAGSV,1,1,01,07,87,340,43,,,,,,,,,,,,,7*4A
$GNGST,112423.60,0.000,,,,0.118,0.197,0.357*60
$GNVTG,157.10,T,,M,1.61,N,2.98,K,A*24
$GNRMC,112423.80,A,1221.4939730,N,07635.7737394,E,1.58,158.82,270718,,,D*45
$GNGGA,112423.80,1221.4939730,N,07635.7737394,E,5,06,0.7,790.477,M,-88.379,M,0.8,*7A
$GPGSA,A,3,15,20,25,29,41,,,,,,,,5.8,2.8,5.1*3E
$GLGSA,A,3,70,71,,,,,,,,,,,0.0,0.0,0.0*2F
$GAGSA,A,3,07,,,,,,,,,,,,0.0,0.0,0.0*24
$GPGSV,2,1,05,15,65,075,43,20,37,279,37,25,28,206,42,29,81,014,49,1*6B
$GPGSV,2,2,05,41,74,152,49,,,,,,,,,,,,,1*5C
$GLGSV,1,1,02,70,61,350,35,71,51,236,43,,,,,,,,,1*78
$GAGSV,1,1,01,07,87,340,43,,,,,,,,,,,,,7*4A
$GNGST,112423.80,0.000,,,,0.118,0.197,0.356*6F
$GNVTG,158.82,T,,M,1.58,N,2.92,K,A*20
$GNRMC,112424.00,A,1221.4938990,N,07635.7737795,E,1.42,154.03,270718,,,D*44
$GNGGA,112424.00,1221.4938990,N,07635.7737795,E,5,06,0.7,790.467,M,-88.379,M,1.0,*7D
$GPGSA,A,3,15,20,25,29,41,,,,,,,,5.8,2.8,5.1*3E
$GLGSA,A,3,70,71,,,,,,,,,,,0.0,0.0,0.0*2F
$GAGSA,A,3,07,,,,,,,,,,,,0.0,0.0,0.0*24
$GPGSV,2,1,05,15,65,075,43,20,37,279,37,25,28,206,42,29,81,014,49,1*6B
$GPGSV,2,2,05,41,74,152,48,,,,,,,,,,,,,1*5D
$GLGSV,1,1,02,70,61,350,35,71,51,236,43,,,,,,,,,1*78
$GAGSV,1,1,01,07,87,340,43,,,,,,,,,,,,,7*4A
$GNGST,112424.00,0.000,,,,0.118,0.197,0.356*60
$GNVTG,154.03,T,,M,1.42,N,2.63,K,A*20
$GNRMC,112424.20,A,1221.4938195,N,07635.7738259,E,1.66,145.95,270718,,,D*48
$GNGGA,112424.20,1221.4938195,N,07635.7738259,E,5,06,0.7,790.500,M,-88.379,M,1.2,*7A
$GPGSA,A,3,10,15,20,25,29,41,,,,,,,5.4,2.7,4.6*3A
$GLGSA,A,3,70,71,,,,,,,,,,,0.0,0.0,0.0*2F
$GAGSA,A,3,07,,,,,,,,,,,,0.0,0.0,0.0*24
$GPGSV,2,1,06,10,21,253,36,15,65,075,44,20,37,279,37,25,28,206,42,1*66
$GPGSV,2,2,06,29,81,014,49,41,74,152,49,,,,,,,,,1*65
$GLGSV,1,1,02,70,61,350,35,71,51,236,43,,,,,,,,,1*78
$GAGSV,1,1,01,07,87,340,42,,,,,,,,,,,,,7*4B
$GNGST,112424.20,0.000,,,,0.118,0.196,0.356*63
$GNVTG,145.95,T,,M,1.66,N,3.08,K,A*25
$GNRMC,112424.40,A,1221.4937461,N,07635.7738594,E,1.37,162.03,270718,,,D*47
$GNGGA,112424.40,1221.4937461,N,07635.7738594,E,5,06,0.7,790.502,M,-88.379,M,0.4,*7E
$GPGSA,A,3,10,15,20,25,29,41,,,,,,,5.4,2.7,4.6*3A
$GLGSA,A,3,70,71,,,,,,,,,,,0.0,0.0,0.0*2F
$GAGSA,A,3,07,,,,,,,,,,,,0.0,0.0,0.0*24
