$GNRMC,111455.60,A,1221.5019093,N,07635.7621999,E,0.12,,270718,,,D*5B
$GNGGA,111455.60,1221.5019093,N,07635.7621999,E,5,05,1.3,788.735,M,-88.379,M,0.6,*77
$GPGSA,A,3,15,24,25,29,41,,,,,,,,5.2,3.2,4.1*3A
$GLGSA,A,3,71,84,,,,,,,,,,,0.0,0.0,0.0*24
$GAGSA,A,3,07,,,,,,,,,,,,0.0,0.0,0.0*24
$GPGSV,2,1,05,15,66,087,50,24,16,146,39,25,31,209,40,29,76,005,48,1*6D
$GPGSV,2,2,05,41,74,152,48,,,,,,,,,,,,,1*5D
$GLGSV,1,1,02,71,48,229,38,84,49,072,41,,,,,,,,,1*73
$GAGSV,1,1,01,07,88,231,42,,,,,,,,,,,,,7*43
$GNGST,111455.60,0.366,,,,0.135,0.195,0.487*66
$GNVTG,,T,,M,0.12,N,0.22,K,A*3E
$GNRMC,111455.80,A,1221.5019079,N,07635.7622018,E,0.04,,270718,,,D*55
$GNGGA,111455.80,1221.5019079,N,07635.7622018,E,5,05,1.3,788.786,M,-88.379,M,0.8,*78
$GPGSA,A,3,15,24,25,29,41,,,,,,,,5.2,3.2,4.1*3A
$GLGSA,A,3,71,84,,,,,,,,,,,0.0,0.0,0.0*24
$GAGSA,A,3,07,,,,,,,,,,,,0.0,0.0,0.0*24
$GPGSV,2,1,05,15,66,087,50,24,16,146,39,25,31,209,40,29,76,005,48,1*6D
$GPGSV,2,2,05,41,74,152,48,,,,,,,,,,,,,1*5D
$GLGSV,1,1,02,71,48,229,38,84,49,072,41,,,,,,,,,1*73
$GAGSV,1,1,01,07,88,231,42,,,,,,,,,,,,,7*43
$GNGST,111455.80,0.283,,,,0.135,0.195,0.510*6D
$GNVTG,,T,,M,0.04,N,0.07,K,A*3E
$GNRMC,111456.00,A,1221.5018994,N,07635.7622073,E,0.20,,270718,,,D*5E
$GNGGA,111456.00,1221.5018994,N,07635.7622073,E,5,05,1.3,788.907,M,-88.379,M,1.0,*7B
$GPGSA,A,3,15,24,25,29,41,,,,,,,,5.2,3.2,4.1*3A
$GLGSA,A,3,71,84,,,,,,,,,,,0.0,0.0,0.0*24
$GAGSA,A,3,07,,,,,,,,,,,,0.0,0.0,0.0*24
$GPGSV,2,1,05,15,66,087,50,24,16,146,39,25,31,209,40,29,76,005,48,1*6D
$GPGSV,2,2,05,41,74,152,48,,,,,,,,,,,,,1*5D
$GLGSV,1,1,02,71,48,229,38,84,49,072,41,,,,,,,,,1*73
$GAGSV,1,1,01,07,88,231,42,,,,,,,,,,,,,7*43
$GNGST,111456.00,0.331,,,,0.136,0.195,0.532*6D
$GNVTG,,T,,M,0.20,N,0.36,K,A*3A
$GNRMC,111456.20,A,1221.5018901,N,07635.7622122,E,0.26,,270718,,,D*53
$GNGGA,111456.20,1221.5018901,N,07635.7622122,E,5,05,1.3,789.037,M,-88.379,M,1.2,*79
$GPGSA,A,3,15,24,25,29,41,,,,,,,,5.2,3.2,4.1*3A
$GLGSA,A,3,71,84,,,,,,,,,,,0.0,0.0,0.0*24
$GAGSA,A,3,07,,,,,,,,,,,,0.0,0.0,0.0*24
$GPGSV,2,1,05,15,66,087,50,24,16,146,39,25,31,209,40,29,76,005,48,1*6D
$GPGSV,2,2,05,41,74,152,48,,,,,,,,,,,,,1*5D
$GLGSV,1,1,02,71,48,229,38,84,49,072,41,,,,,,,,,1*73
$GAGSV,1,1,01,07,88,231,42,,,,,,,,,,,,,7*43
$GNGST,111456.20,0.255,,,,0.136,0.195,0.541*68
$GNVTG,,T,,M,0.26,N,0.48,K,A*35
$GNRMC,111456.40,A,1221.5019032,N,07635.7622002,E,0.10,,270718,,,D*5B
$GNGGA,111456.40,1221.5019032,N,07635.7622002,E,5,06,1.3,788.746,M,-88.379,M,0.4,*70
$GPGSA,A,3,15,24,25,29,41,,,,,,,,5.2,3.2,4.1*3A
$GLGSA,A,3,71,84,,,,,,,,,,,0.0,0.0,0.0*24
$GAGSA,A,3,07,,,,,,,,,,,,0.0,0.0,0.0*24
$GPGSV,2,1,05,15,66,087,50,24,16,146,39,25,31,209,40,29,76,005,48,1*6D
$GPGSV,2,2,05,41,74,152,48,,,,,,,,,,,,,1*5D
$GLGSV,1,1,02,71,48,229,38,84,49,072,41,,,,,,,,,1*73
$GAGSV,1,1,01,07,88,231,42,,,,,,,,,,,,,7*43
$GNGST,111456.40,0.246,,,,0.134,0.195,0.477*6A
$GNVTG,,T,,M,0.10,N,0.19,K,A*34
$GNRMC,111456.60,A,1221.5018969,N,07635.7621993,E,0.03,,270718,,,D*5F
$GNGGA,111456.60,1221.5018969,N,07635.7621993,E,5,06,1.3,788.757,M,-88.379,M,0.6,*74
$GPGSA,A,3,15,24,25,29,41,,,,,,,,5.2,3.2,4.1*3A
$GLGSA,A,3,71,84,,,,,,,,,,,0.0,0.0,0.0*24
$GAGSA,A,3,07,,,,,,,,,,,,0.0,0.0,0.0*24
$GPGSV,2,1,05,15,66,087,50,24,16,146,39,25,31,209,40,29,76,005,48,1*6D
$GPGSV,2,2,05,41,74,152,48,,,,,,,,,,,,,1*5D
$GLGSV,1,1,02,71,48,229,38,84,49,072,41,,,,,,,,,1*73
$GAGSV,1,1,01,07,88,232,42,,,,,,,,,,,,,7*40
$GNGST,111456.60,0.266,,,,0.134,0.195,0.476*6B
$GNVTG,,T,,M,0.03,N,0.06,K,A*38
$GNRMC,111456.80,A,1221.5018869,N,07635.7622006,E,0.10,,270718,,,D*54
$GNGGA,111456.80,1221.5018869,N,07635.7622006,E,5,06,1.3,788.784,M,-88.379,M,0.8,*7D
$GPGSA,A,3,15,24,25,29,41,,,,,,,,5.2,3.2,4.1*3A
$GLGSA,A,3,71,84,,,,,,,,,,,0.0,0.0,0.0*24
$GAGSA,A,3,07,,,,,,,,,,,,0.0,0.0,0.0*24
$GPGSV,2,1,05,15,66,087,50,24,16,146,39,25,31,209,40,29,76,005,48,1*6D
$GPGSV,2,2,05,41,74,152,48,,,,,,,,,,,,,1*5D
$GLGSV,1,1,02,71,48,229,38,84,49,072,41,,,,,,,,,1*73
$GAGSV,1,1,01,07,88,232,42,,,,,,,,,,,,,7*40
$GNGST,111456.80,0.257,,,,0.134,0.194,0.476*66
$GNVTG,,T,,M,0.10,N,0.18,K,A*35
$GNRMC,111457.00,A,1221.5018713,N,07635.7622003,E,0.23,,270718,,,D*5A
$GNGGA,111457.00,1221.5018713,N,07635.7622003,E,5,06,1.3,788.817,M,-88.379,M,1.0,*7F
$GPGSA,A,3,15,24,25,29,41,,,,,,,,5.2,3.2,4.1*3A
$GLGSA,A,3,71,84,,,,,,,,,,,0.0,0.0,0.0*24
$GAGSA,A,3,07,,,,,,,,,,,,0.0,0.0,0.0*24
$GPGSV,2,1,05,15,66,087,50,24,16,146,41,25,31,209,39,29,76,005,48,1*6C
$GPGSV,2,2,05,41,74,152,49,,,,,,,,,,,,,1*5C
$GLGSV,1,1,02,71,48,229,38,84,49,072,41,,,,,,,,,1*73
$GAGSV,1,1,01,07,88,232,42,,,,,,,,,,,,,7*40
$GNGST,111457.00,0.256,,,,0.134,0.194,0.475*6D
$GNVTG,,T,,M,0.23,N,0.43,K,A*3B
$GNRMC,111457.20,A,1221.5018588,N,07635.7622019,E,0.14,,270718,,,D*57
$GNGGA,111457.20,1221.5018588,N,07635.7622019,E,5,06,1.3,788.848,M,-88.379,M,1.2,*7E
$GPGSA,A,3,15,24,25,29,41,,,,,,,,5.2,3.2,4.1*3A
$GLGSA,A,3,71,84,,,,,,,,,,,0.0,0.0,0.0*24
$GAGSA,A,3,07,,,,,,,,,,,,0.0,0.0,0.0*24
$GPGSV,2,1,05,15,66,087,50,24,16,146,41,25,31,209,38,29,76,005,48,1*6D
$GPGSV,2,2,05,41,74,152,49,,,,,,,,,,,,,1*5C
$GLGSV,1,1,02,71,48,229,36,84,49,072,41,,,,,,,,,1*7D
$GAGSV,1,1,01,07,88,232,42,,,,,,,,,,,,,7*40
$GNGST,111457.20,0.258,,,,0.134,0.194,0.475*61
$GNVTG,,T,,M,0.14,N,0.26,K,A*3C
$GNRMC,111457.40,A,1221.5018484,N,07635.7622056,E,0.14,,270718,,,D*57
$GNGGA,111457.40,1221.5018484,N,07635.7622056,E,5,06,1.3,788.875,M,-88.379,M,1.4,*76
$GPGSA,A,3,15,24,25,29,41,,,,,,,,5.2,3.2,4.1*3A
$GLGSA,A,3,71,84,,,,,,,,,,,0.0,0.0,0.0*24
$GAGSA,A,3,07,,,,,,,,,,,,0.0,0.0,0.0*24
$GPGSV,2,1,05,15,66,087,50,24,16,146,41,25,31,209,38,29,76,005,48,1*6D
$GPGSV,2,2,05,41,74,152,49,,,,,,,,,,,,,1*5C
$GLGSV,1,1,02,71,48,229,36,84,49,072,41,,,,,,,,,1*7D
$GAGSV,1,1,01,07,88,232,42,,,,,,,,,,,,,7*40
$GNGST,111457.40,0.264,,,,0.134,0.194,0.474*69
$GNVTG,,T,,M,0.14,N,0.27,K,A*3D
$GNRMC,111457.60,A,1221.5018565,N,07635.7621990,E,0.26,,270718,,,D*5A
$GNGGA,111457.60,1221.5018565,N,07635.7621990,E,5,06,1.3,788.841,M,-88.379,M,0.6,*7E
$GPGSA,A,3,15,24,25,29,41,,,,,,,,5.2,3.2,4.1*3A
$GLGSA,A,3,71,84,,,,,,,,,,,0.0,0.0,0.0*24
$GAGSA,A,3,07,,,,,,,,,,,,0.0,0.0,0.0*24
$GPGSV,2,1,05,15,66,087,50,24,16,146,40,25,31,209,40,29,76,005,48,1*63
$GPGSV,2,2,05,41,74,152,49,,,,,,,,,,,,,1*5C
$GLGSV,1,1,02,71,48,229,39,84,49,072,41,,,,,,,,,1*72
$GAGSV,1,1,01,07,88,232,42,,,,,,,,,,,,,7*40
$GNGST,111457.60,0.331,,,,0.134,0.194,0.474*6A
$GNVTG,,T,,M,0.26,N,0.48,K,A*35
$GNRMC,111457.80,A,1221.5018537,N,07635.7622003,E,0.12,,270718,,,D*54
$GNGGA,111457.80,1221.5018537,N,07635.7622003,E,5,06,1.3,788.840,M,-88.379,M,0.8,*78
$GPGSA,A,3,15,24,25,29,41,,,,,,,,5.2,3.2,4.1*3A
$GLGSA,A,3,71,84,,,,,,,,,,,0.0,0.0,0.0*24
$GAGSA,A,3,07,,,,,,,,,,,,0.0,0.0,0.0*24
$GPGSV,2,1,05,15,66,087,50,24,16,146,40,25,31,209,40,29,76,005,48,1*63
$GPGSV,2,2,05,41,74,152,49,,,,,,,,,,,,,1*5C
$GLGSV,1,1,02,71,48,229,38,84,49,072,41,,,,,,,,,1*73
$GAGSV,1,1,01,07,88,232,42,,,,,,,,,,,,,7*40
$GNGST,111457.80,0.424,,,,0.134,0.194,0.473*60
$GNVTG,,T,,M,0.12,N,0.21,K,A*3D
$GNRMC,111458.00,A,1221.5018441,N,07635.7622028,E,0.08,,270718,,,D*51
$GNGGA,111458.00,1221.5018441,N,07635.7622028,E,5,06,1.3,788.855,M,-88.379,M,1.0,*7B
$GPGSA,A,3,15,24,25,29,41,,,,,,,,5.2,3.2,4.1*3A
$GLGSA,A,3,71,84,,,,,,,,,,,0.0,0.0,0.0*24
$GAGSA,A,3,07,,,,,,,,,,,,0.0,0.0,0.0*24
$GPGSV,2,1,05,15,66,087,51,24,16,146,38,25,31,209,40,29,76,005,48,1*6D
$GPGSV,2,2,05,41,74,152,49,,,,,,,,,,,,,1*5C
$GLGSV,1,1,02,71,48,229,38,84,49,072,42,,,,,,,,,1*70
$GAGSV,1,1,01,07,88,232,42,,,,,,,,,,,,,7*40
$GNGST,111458.00,0.405,,,,0.133,0.194,0.473*63
$GNVTG,,T,,M,0.08,N,0.15,K,A*31
$GNRMC,111458.20,A,1221.5018354,N,07635.7622050,E,0.06,,270718,,,D*51
$GNGGA,111458.20,1221.5018354,N,07635.7622050,E,5,06,1.3,788.881,M,-88.379,M,1.2,*7E
$GPGSA,A,3,15,24,25,29,41,,,,,,,,5.2,3.2,4.1*3A
$GLGSA,A,3,71,84,,,,,,,,,,,0.0,0.0,0.0*24
$GAGSA,A,3,07,,,,,,,,,,,,0.0,0.0,0.0*24
$GPGSV,2,1,05,15,66,087,51,24,16,146,38,25,31,209,40,29,76,005,48,1*6D
$GPGSV,2,2,05,41,74,152,49,,,,,,,,,,,,,1*5C
$GLGSV,1,1,02,71,48,229,38,84,49,072,42,,,,,,,,,1*70
$GAGSV,1,1,01,07,88,232,42,,,,,,,,,,,,,7*40
$GNGST,111458.20,0.424,,,,0.133,0.193,0.472*64
$GNVTG,,T,,M,0.06,N,0.11,K,A*3B
$GNRMC,111458.40,A,1221.5018491,N,07635.7621937,E,0.36,,270718,,,D*51
$GNGGA,111458.40,1221.5018491,N,07635.7621937,E,5,06,1.3,788.835,M,-88.379,M,0.4,*75
$GPGSA,A,3,15,24,25,29,41,,,,,,,,5.2,3.2,4.1*3A
$GLGSA,A,3,71,84,,,,,,,,,,,0.0,0.0,0.0*24
$GAGSA,A,3,07,,,,,,,,,,,,0.0,0.0,0.0*24
$GPGSV,2,1,05,15,66,087,51,24,16,146,38,25,31,209,40,29,76,005,48,1*6D
$GPGSV,2,2,05,41,74,152,49,,,,,,,,,,,,,1*5C
$GLGSV,1,1,02,71,48,229,36,84,49,072,41,,,,,,,,,1*7D
$GAGSV,1,1,01,07,88,232,42,,,,,,,,,,,,,7*40
$GNGST,111458.40,0.606,,,,0.133,0.193,0.471*63
$GNVTG,,T,,M,0.36,N,0.67,K,A*39
$GNRMC,111458.60,A,1221.5018113,N,07635.7622064,E,0.10,,270718,,,D*54
$GNGGA,111458.60,1221.5018113,N,07635.7622064,E,5,08,1.2,789.103,M,-88.379,M,0.6,*74
$GPGSA,A,3,15,24,25,29,40,41,,,,,,,5.1,3.1,4.1*3E
$GLGSA,A,3,70,71,84,,,,,,,,,,0.0,0.0,0.0*23
$GAGSA,A,3,07,,,,,,,,,,,,0.0,0.0,0.0*24
$GPGSV,2,1,06,15,66,087,50,24,16,146,38,25,31,209,40,29,76,005,48,1*6F
$GPGSV,2,2,06,40,61,241,36,41,74,152,49,,,,,,,,,1*6E
$GLGSV,1,1,03,70,67,346,35,71,48,229,36,84,49,072,41,,,,,1*4D
$GAGSV,1,1,01,07,88,232,42,,,,,,,,,,,,,7*40
$GNGST,111458.60,0.373,,,,0.132,0.191,0.463*66
$GNVTG,,T,,M,0.10,N,0.18,K,A*35
$GNRMC,111458.80,A,1221.5017860,N,07635.7622095,E,0.55,,270718,,,D*57
$GNGGA,111458.80,1221.5017860,N,07635.7622095,E,5,07,1.2,789.174,M,-88.379,M,0.8,*77
$GPGSA,A,3,10,15,25,29,40,41,,,,,,,4.2,2.5,3.4*3C
$GLGSA,A,3,70,71,84,,,,,,,,,,0.0,0.0,0.0*23
$GAGSA,A,3,07,,,,,,,,,,,,0.0,0.0,0.0*24
$GPGSV,2,1,06,10,19,249,36,15,66,087,47,25,31,209,36,29,76,005,47,1*6D
$GPGSV,2,2,06,40,61,241,36,41,74,152,44,,,,,,,,,1*63
$GLGSV,1,1,03,70,67,346,35,71,48,229,38,84,49,072,38,,,,,1*4D
$GAGSV,1,1,01,07,88,232,43,,,,,,,,,,,,,7*41
$GNGST,111458.80,0.504,,,,0.132,0.191,0.467*6A
$GNVTG,,T,,M,0.55,N,1.02,K,A*3E
$GPGSA,A,1,,,,,,,,,,,,,,,*1E
$GPGSV,1,1,0,,,,,,,,,,,,,,,,*49
$GNGST,,,,,,,,,*65
$GNVTG,,,,,,,*60
$GNRMC,111500.00,A,1221.5016618,N,07635.7622458,E,0.37,,270718,,,D*52
$GNGGA,111500.00,1221.5016618,N,07635.7622458,E,5,04,1.8,789.578,M,-88.379,M,1.0,*7E
$GPGSA,A,3,15,29,40,41,,,,,,,,,16.4,3.5,16.0*3E
$GLGSA,A,3,71,84,,,,,,,,,,,0.0,0.0,0.0*24
$GAGSA,A,3,07,,,,,,,,,,,,0.0,0.0,0.0*24
$GPGSV,1,1,04,15,66,087,47,29,76,005,43,40,61,241,40,41,74,152,45,1*61
$GLGSV,1,1,02,71,48,229,37,84,49,072,37,,,,,,,,,1*7D
$GAGSV,1,1,01,07,88,232,39,,,,,,,,,,,,,7*4C
$GNGST,111500.00,0.568,,,,0.187,0.201,1.012*67
$GNVTG,,T,,M,0.37,N,0.68,K,A*37
$GNRMC,111500.20,A,1221.5016616,N,07635.7622458,E,0.67,,270718,,,D*5B
$GNGGA,111500.20,1221.5016616,N,07635.7622458,E,5,04,1.4,789.274,M,-88.379,M,1.2,*77
$GPGSA,A,3,15,29,40,41,,,,,,,,,16.4,3.5,16.0*3E
$GLGSA,A,3,84,,,,,,,,,,,,0.0,0.0,0.0*22
$GAGSA,A,3,07,,,,,,,,,,,,0.0,0.0,0.0*24
$GPGSV,1,1,04,15,66,087,46,29,76,005,44,40,61,241,43,41,74,152,46,1*67
$GLGSV,1,1,01,84,49,072,40,,,,,,,,,,,,,1*49
$GAGSV,1,1,01,07,88,232,39,,,,,,,,,,,,,7*4C
$GNGST,111500.20,0.570,,,,0.162,0.198,0.862*6A
$GNVTG,,T,,M,0.67,N,1.24,K,A*3B
$GNRMC,111500.40,A,1221.5016651,N,07635.7622210,E,0.69,,270718,,,D*5A
$GNGGA,111500.40,1221.5016651,N,07635.7622210,E,5,04,1.2,789.261,M,-88.379,M,0.4,*7D
$GPGSA,A,3,15,29,40,41,,,,,,,,,16.4,3.5,16.0*3E
$GLGSA,A,3,84,,,,,,,,,,,,0.0,0.0,0.0*22
$GAGSA,A,3,07,,,,,,,,,,,,0.0,0.0,0.0*24
$GPGSV,1,1,04,15,66,087,46,29,76,005,43,40,61,241,45,41,74,152,48,1*68
$GLGSV,1,1,01,84,49,072,40,,,,,,,,,,,,,1*49
$GAGSV,1,1,01,07,88,232,40,,,,,,,,,,,,,7*42
$GNGST,111500.40,0.726,,,,0.157,0.197,0.791*67
$GNVTG,,T,,M,0.69,N,1.28,K,A*39
$GNRMC,111500.60,A,1221.5016916,N,07635.7622030,E,0.44,,270718,,,D*5B
$GNGGA,111500.60,1221.5016916,N,07635.7622030,E,5,08,1.1,788.857,M,-88.379,M,0.6,*70
$GPGSA,A,3,10,15,20,24,29,40,41,,,,,,3.2,2.3,2.3*38
$GLGSA,A,3,71,84,,,,,,,,,,,0.0,0.0,0.0*24
$GAGSA,A,3,07,,,,,,,,,,,,0.0,0.0,0.0*24
$GPGSV,2,1,07,10,19,249,38,15,66,087,50,20,36,274,36,24,16,146,38,1*69
$GPGSV,2,2,07,29,76,005,47,40,61,241,47,41,74,152,51,,,,,1*5C
$GLGSV,1,1,02,71,48,229,39,84,49,072,45,,,,,,,,,1*76
$GAGSV,1,1,01,07,88,232,43,,,,,,,,,,,,,7*41
$GNGST,111500.60,0.370,,,,0.157,0.196,0.754*6A
$GNVTG,,T,,M,0.44,N,0.82,K,A*37
$GNRMC,111500.80,A,1221.5016917,N,07635.7621711,E,0.81,,270718,,,D*5A
$GNGGA,111500.80,1221.5016917,N,07635.7621711,E,5,08,1.1,788.880,M,-88.379,M,0.8,*7C
$GPGSA,A,3,10,15,20,24,29,40,41,,,,,,3.2,2.3,2.3*38
$GLGSA,A,3,71,84,,,,,,,,,,,0.0,0.0,0.0*24
$GAGSA,A,3,07,,,,,,,,,,,,0.0,0.0,0.0*24
$GPGSV,2,1,07,10,19,249,43,15,66,087,51,20,36,274,42,24,16,146,38,1*67
$GPGSV,2,2,07,29,76,005,48,40,61,241,49,41,74,152,50,,,,,1*5C
$GLGSV,1,1,02,71,48,229,40,84,49,072,46,,,,,,,,,1*7B
$GAGSV,1,1,01,07,88,232,43,,,,,,,,,,,,,7*41
$GNGST,111500.80,0.370,,,,0.155,0.194,0.731*67
$GNVTG,,T,,M,0.81,N,1.50,K,A*30
$GNRMC,111501.00,A,1221.5016879,N,07635.7621240,E,0.88,,270718,,,D*52
$GNGGA,111501.00,1221.5016879,N,07635.7621240,E,5,08,1.1,788.874,M,-88.379,M,1.0,*7F
$GPGSA,A,3,10,15,20,24,29,40,41,,,,,,3.2,2.3,2.3*38
$GLGSA,A,3,71,84,,,,,,,,,,,0.0,0.0,0.0*24
$GAGSA,A,3,07,,,,,,,,,,,,0.0,0.0,0.0*24
$GPGSV,2,1,07,10,19,249,42,15,66,087,50,20,36,274,42,24,16,146,36,1*69
$GPGSV,2,2,07,29,76,005,49,40,61,241,49,41,74,152,51,,,,,1*5C
$GLGSV,1,1,02,71,48,229,38,84,49,072,45,,,,,,,,,1*77
$GAGSV,1,1,01,07,88,232,44,,,,,,,,,,,,,7*46
$GNGST,111501.00,0.337,,,,0.154,0.193,0.708*61
$GNVTG,,T,,M,0.88,N,1.64,K,A*3E
$GNRMC,111501.20,A,1221.5016762,N,07635.7620998,E,0.47,,270718,,,D*59
$GNGGA,111501.20,1221.5016762,N,07635.7620998,E,5,08,1.1,788.733,M,-88.379,M,1.2,*79
$GPGSA,A,3,10,15,20,29,40,41,,,,,,,4.4,2.8,3.4*32
$GLGSA,A,3,71,84,,,,,,,,,,,0.0,0.0,0.0*24
$GAGSA,A,3,07,,,,,,,,,,,,0.0,0.0,0.0*24
$GPGSV,2,1,06,10,19,249,42,15,66,087,50,20,36,274,42,29,76,005,47,1*63
$GPGSV,2,2,06,40,61,241,48,41,74,152,50,,,,,,,,,1*6F
$GLGSV,1,1,02,71,48,229,38,84,49,072,45,,,,,,,,,1*77
$GAGSV,1,1,01,07,88,232,44,,,,,,,,,,,,,7*46
$GNGST,111501.20,0.304,,,,0.153,0.193,0.696*62
$GNVTG,,T,,M,0.47,N,0.87,K,A*31
$GNRMC,111501.40,A,1221.5016626,N,07635.7620874,E,0.53,,270718,,,D*58
$GNGGA,111501.40,1221.5016626,N,07635.7620874,E,5,08,1.1,788.519,M,-88.379,M,1.4,*71
$GPGSA,A,3,10,15,20,29,40,41,,,,,,,4.4,2.8,3.4*32
$GLGSA,A,3,71,84,,,,,,,,,,,0.0,0.0,0.0*24
$GAGSA,A,3,07,,,,,,,,,,,,0.0,0.0,0.0*24
$GPGSV,2,1,06,10,19,249,41,15,66,087,51,20,36,274,43,29,76,005,47,1*60
$GPGSV,2,2,06,40,61,241,47,41,74,152,51,,,,,,,,,1*61
$GLGSV,1,1,02,71,48,229,40,84,49,072,46,,,,,,,,,1*7B
$GAGSV,1,1,01,07,88,232,44,,,,,,,,,,,,,7*46
$GNGST,111501.40,0.346,,,,0.153,0.192,0.690*65
$GNVTG,,T,,M,0.53,N,0.98,K,A*3A
$GNRMC,111501.60,A,1221.5016559,N,07635.7620672,E,0.14,,270718,,,D*5A
$GNGGA,111501.60,1221.5016559,N,07635.7620672,E,5,09,1.1,788.564,M,-88.379,M,0.6,*78
$GPGSA,A,3,10,15,20,24,29,40,41,,,,,,3.2,2.3,2.3*38
$GLGSA,A,3,71,84,,,,,,,,,,,0.0,0.0,0.0*24
$GAGSA,A,3,07,,,,,,,,,,,,0.0,0.0,0.0*24
$GPGSV,2,1,07,10,19,249,41,15,66,087,52,20,36,274,45,24,16,146,36,1*6F
$GPGSV,2,2,07,29,76,005,46,40,61,241,47,41,74,152,52,,,,,1*5E
$GLGSV,1,1,02,71,48,229,41,84,49,072,46,,,,,,,,,1*7A
$GAGSV,1,1,01,07,88,233,44,,,,,,,,,,,,,7*47
$GNGST,111501.60,0.335,,,,0.152,0.192,0.683*60
$GNVTG,,T,,M,0.14,N,0.26,K,A*3C
$GNRMC,111501.80,A,1221.5016350,N,07635.7620495,E,0.49,,270718,,,D*58
$GNGGA,111501.80,1221.5016350,N,07635.7620495,E,5,09,1.1,788.541,M,-88.379,M,0.8,*7B
$GPGSA,A,3,10,15,20,24,29,40,41,,,,,,3.2,2.3,2.3*38
$GLGSA,A,3,71,84,,,,,,,,,,,0.0,0.0,0.0*24
$GAGSA,A,3,07,,,,,,,,,,,,0.0,0.0,0.0*24
$GPGSV,2,1,07,10,19,249,39,15,66,087,51,20,36,274,44,24,16,146,38,1*6C
$GPGSV,2,2,07,29,76,005,44,40,61,241,45,41,74,152,51,,,,,1*5D
$GLGSV,1,1,02,71,48,229,43,84,49,072,46,,,,,,,,,1*78
$GAGSV,1,1,01,07,88,233,44,,,,,,,,,,,,,7*47
$GNGST,111501.80,0.354,,,,0.152,0.191,0.677*61
$GNVTG,,T,,M,0.49,N,0.91,K,A*38
$GNRMC,111502.00,A,1221.5015934,N,07635.7620344,E,1.16,189.78,270718,,,D*49
$GNGGA,111502.00,1221.5015934,N,07635.7620344,E,5,08,1.1,788.439,M,-88.379,M,1.0,*76
$GPGSA,A,3,10,15,20,25,29,40,41,,,,,,4.0,2.2,3.4*3B
$GLGSA,A,3,71,84,,,,,,,,,,,0.0,0.0,0.0*24
$GAGSA,A,3,07,,,,,,,,,,,,0.0,0.0,0.0*24
$GPGSV,2,1,07,10,19,249,41,15,66,086,52,20,36,274,46,25,31,209,37,1*60
$GPGSV,2,2,07,29,76,005,44,40,61,241,45,41,74,152,51,,,,,1*5D
$GLGSV,1,1,02,71,48,229,42,84,49,072,45,,,,,,,,,1*7A
$GAGSV,1,1,01,07,88,233,44,,,,,,,,,,,,,7*47
$GNGST,111502.00,0.401,,,,0.152,0.191,0.672*68
$GNVTG,189.78,T,,M,1.16,N,2.15,K,A*2C
$GNRMC,111502.20,A,1221.5015624,N,07635.7620320,E,0.49,,270718,,,D*5D
$GNGGA,111502.20,1221.5015624,N,07635.7620320,E,5,08,1.1,788.442,M,-88.379,M,1.2,*76
$GPGSA,A,3,10,15,20,24,25,29,40,41,,,,,2.7,1.8,2.1*31
$GLGSA,A,3,71,84,,,,,,,,,,,0.0,0.0,0.0*24
$GAGSA,A,3,07,,,,,,,,,,,,0.0,0.0,0.0*24
$GPGSV,2,1,08,10,19,249,41,15,66,086,51,20,36,274,46,24,16,146,39,1*6E
$GPGSV,2,2,08,25,31,209,37,29,76,005,45,40,61,241,46,41,74,152,51,1*6A
$GLGSV,1,1,02,71,48,229,43,84,49,072,47,,,,,,,,,1*79
$GAGSV,1,1,01,07,88,233,44,,,,,,,,,,,,,7*47
$GNGST,111502.20,0.428,,,,0.151,0.191,0.668*69
$GNVTG,,T,,M,0.49,N,0.91,K,A*38
$GNRMC,111502.40,A,1221.5015050,N,07635.7620478,E,1.29,164.18,270718,,,D*47
$GNGGA,111502.40,1221.5015050,N,07635.7620478,E,5,09,1.1,788.263,M,-88.379,M,0.4,*7C
$GPGSA,A,3,10,15,20,25,29,40,41,,,,,,4.0,2.2,3.4*3B
$GLGSA,A,3,71,84,,,,,,,,,,,0.0,0.0,0.0*24
$GAGSA,A,3,07,,,,,,,,,,,,0.0,0.0,0.0*24
$GPGSV,2,1,07,10,19,249,41,15,66,086,49,20,36,274,41,25,31,209,37,1*6D
$GPGSV,2,2,07,29,76,005,45,40,61,241,47,41,74,152,51,,,,,1*5E
$GLGSV,1,1,02,71,48,229,44,84,49,072,47,,,,,,,,,1*7E
$GAGSV,1,1,01,07,88,233,43,,,,,,,,,,,,,7*40
$GNGST,111502.40,0.301,,,,0.151,0.191,0.664*6F
$GNVTG,164.18,T,,M,1.29,N,2.39,K,A*2B
$GNRMC,111502.60,A,1221.5014717,N,07635.7620561,E,1.03,157.67,270718,,,D*49
$GNGGA,111502.60,1221.5014717,N,07635.7620561,E,5,10,1.1,788.171,M,-88.379,M,0.6,*78
$GPGSA,A,3,10,15,20,24,25,29,40,41,,,,,2.7,1.8,2.1*31
$GLGSA,A,3,71,84,,,,,,,,,,,0.0,0.0,0.0*24
$GAGSA,A,3,07,,,,,,,,,,,,0.0,0.0,0.0*24
$GPGSV,2,1,08,10,19,249,41,15,66,086,49,20,36,274,40,24,16,146,39,1*61
$GPGSV,2,2,08,25,31,209,35,29,76,005,43,40,61,241,47,41,74,152,50,1*6E
$GLGSV,1,1,02,71,48,229,44,84,49,072,45,,,,,,,,,1*7C
$GAGSV,1,1,01,07,88,233,43,,,,,,,,,,,,,7*40
$GNGST,111502.60,0.195,,,,0.150,0.190,0.659*6C
$GNVTG,157.67,T,,M,1.03,N,1.91,K,A*2A
$GNRMC,111502.80,A,1221.5014489,N,07635.7620651,E,0.28,,270718,,,D*57
$GNGGA,111502.80,1221.5014489,N,07635.7620651,E,5,09,1.1,787.963,M,-88.379,M,0.8,*70
$GPGSA,A,3,10,15,20,25,29,40,41,,,,,,4.0,2.2,3.4*3B
$GLGSA,A,3,71,84,,,,,,,,,,,0.0,0.0,0.0*24
$GAGSA,A,3,07,,,,,,,,,,,,0.0,0.0,0.0*24
$GPGSV,2,1,07,10,19,249,41,15,66,086,50,20,36,274,39,25,31,209,35,1*68
$GPGSV,2,2,07,29,76,005,44,40,61,241,48,41,74,152,50,,,,,1*51
$GLGSV,1,1,02,71,48,229,42,84,49,072,45,,,,,,,,,1*7A
$GAGSV,1,1,01,07,88,233,42,,,,,,,,,,,,,7*41
$GNGST,111502.80,0.227,,,,0.150,0.190,0.655*64
$GNVTG,,T,,M,0.28,N,0.51,K,A*33
$GNRMC,111503.00,A,1221.5014407,N,07635.7620717,E,0.14,,270718,,,D*54
$GNGGA,111503.00,1221.5014407,N,07635.7620717,E,5,09,1.1,787.739,M,-88.379,M,1.0,*74
$GPGSA,A,3,10,15,20,25,29,40,41,,,,,,4.0,2.2,3.4*3B
$GLGSA,A,3,71,84,,,,,,,,,,,0.0,0.0,0.0*24
$GAGSA,A,3,07,,,,,,,,,,,,0.0,0.0,0.0*24
$GPGSV,2,1,07,10,19,249,40,15,66,086,50,20,36,274,41,25,31,209,37,1*64
$GPGSV,2,2,07,29,76,005,46,40,61,241,50,41,74,152,50,,,,,1*5A
$GLGSV,1,1,02,71,48,229,42,84,49,072,45,,,,,,,,,1*7A
$GAGSV,1,1,01,07,88,233,42,,,,,,,,,,,,,7*41
$GNGST,111503.00,0.223,,,,0.150,0.190,0.652*6E
$GNVTG,,T,,M,0.14,N,0.25,K,A*3F
$GNRMC,111503.20,A,1221.5014444,N,07635.7620800,E,0.31,,270718,,,D*5F
$GNGGA,111503.20,1221.5014444,N,07635.7620800,E,5,09,1.1,787.498,M,-88.379,M,1.2,*72
$GPGSA,A,3,10,15,20,25,29,40,41,,,,,,4.0,2.2,3.4*3B
$GLGSA,A,3,71,84,,,,,,,,,,,0.0,0.0,0.0*24
$GAGSA,A,3,07,,,,,,,,,,,,0.0,0.0,0.0*24
$GPGSV,2,1,07,10,19,249,36,15,66,086,49,20,36,274,38,25,31,209,35,1*61
$GPGSV,2,2,07,29,76,005,47,40,61,241,48,41,74,152,49,,,,,1*5A
$GLGSV,1,1,02,71,48,229,42,84,49,072,45,,,,,,,,,1*7A
$GAGSV,1,1,01,07,88,233,42,,,,,,,,,,,,,7*41
$GNGST,111503.20,0.239,,,,0.150,0.190,0.649*6D
$GNVTG,,T,,M,0.31,N,0.57,K,A*3D
$GNRMC,111503.40,A,1221.5014659,N,07635.7620595,E,0.81,,270718,,,D*5D
$GNGGA,111503.40,1221.5014659,N,07635.7620595,E,5,07,1.1,787.462,M,-88.379,M,1.4,*76
$GPGSA,A,3,15,20,29,40,41,,,,,,,,6.7,3.2,5.9*32
$GLGSA,A,3,71,84,,,,,,,,,,,0.0,0.0,0.0*24
$GAGSA,A,3,07,,,,,,,,,,,,0.0,0.0,0.0*24
$GPGSV,2,1,05,15,66,086,46,20,36,274,35,29,76,005,43,40,61,241,43,1*61
$GPGSV,2,2,05,41,74,152,46,,,,,,,,,,,,,1*53
$GLGSV,1,1,02,71,48,229,41,84,49,072,44,,,,,,,,,1*78
$GAGSV,1,1,01,07,88,233,39,,,,,,,,,,,,,7*4D
$GNGST,111503.40,0.404,,,,0.150,0.190,0.647*6D
$GNVTG,,T,,M,0.81,N,1.51,K,A*31
$GNRMC,111503.60,A,1221.5014825,N,07635.7620361,E,0.67,,270718,,,D*5F
$GNGGA,111503.60,1221.5014825,N,07635.7620361,E,5,07,1.1,787.466,M,-88.379,M,0.6,*7B
$GPGSA,A,3,15,20,29,40,41,,,,,,,,6.7,3.2,5.9*32
$GLGSA,A,3,71,84,,,,,,,,,,,0.0,0.0,0.0*24
$GAGSA,A,3,07,,,,,,,,,,,,0.0,0.0,0.0*24
$GPGSV,2,1,05,15,66,086,48,20,36,274,37,29,76,005,45,40,61,241,44,1*6C
$GPGSV,2,2,05,41,74,152,48,,,,,,,,,,,,,1*5D
$GLGSV,1,1,02,71,48,229,39,84,49,072,42,,,,,,,,,1*71
$GAGSV,1,1,01,07,88,233,41,,,,,,,,,,,,,7*42
$GNGST,111503.60,0.339,,,,0.150,0.190,0.646*67
$GNVTG,,T,,M,0.67,N,1.24,K,A*3B
$GNRMC,111503.80,A,1221.5014827,N,07635.7620284,E,0.09,,270718,,,D*51
$GNGGA,111503.80,1221.5014827,N,07635.7620284,E,5,07,1.1,787.429,M,-88.379,M,0.8,*78
$GPGSA,A,3,15,20,29,40,41,,,,,,,,6.7,3.2,5.9*32
$GLGSA,A,3,71,84,,,,,,,,,,,0.0,0.0,0.0*24
$GAGSA,A,3,07,,,,,,,,,,,,0.0,0.0,0.0*24
$GPGSV,2,1,05,15,66,086,48,20,36,274,38,29,76,005,45,40,61,241,43,1*64
$GPGSV,2,2,05,41,74,152,48,,,,,,,,,,,,,1*5D
$GLGSV,1,1,02,71,48,229,37,84,49,072,40,,,,,,,,,1*7D
$GAGSV,1,1,01,07,88,233,41,,,,,,,,,,,,,7*42
$GNGST,111503.80,0.416,,,,0.149,0.190,0.644*69
$GNVTG,,T,,M,0.09,N,0.17,K,A*32
$GNRMC,111504.00,A,1221.5014701,N,07635.7620262,E,0.53,,270718,,,D*52
$GNGGA,111504.00,1221.5014701,N,07635.7620262,E,5,07,1.1,787.377,M,-88.379,M,1.0,*71
$GPGSA,A,3,15,20,29,40,41,,,,,,,,6.7,3.2,5.9*32
$GLGSA,A,3,71,84,,,,,,,,,,,0.0,0.0,0.0*24
$GAGSA,A,3,07,,,,,,,,,,,,0.0,0.0,0.0*24
$GPGSV,2,1,05,15,66,086,48,20,36,274,38,29,76,005,45,40,61,241,44,1*63
$GPGSV,2,2,05,41,74,152,48,,,,,,,,,,,,,1*5D
$GLGSV,1,1,02,71,48,229,37,84,49,072,41,,,,,,,,,1*7C
$GAGSV,1,1,01,07,88,233,41,,,,,,,,,,,,,7*42
$GNGST,111504.00,0.420,,,,0.149,0.190,0.643*64
$GNVTG,,T,,M,0.53,N,0.97,K,A*35
$GNRMC,111504.20,A,1221.5014511,N,07635.7620167,E,0.62,,270718,,,D*57
$GNGGA,111504.20,1221.5014511,N,07635.7620167,E,5,05,1.1,787.377,M,-88.379,M,1.2,*76
$GPGSA,A,3,15,20,29,40,41,,,,,,,,6.7,3.2,5.9*32
$GLGSA,A,3,84,,,,,,,,,,,,0.0,0.0,0.0*22
$GAGSA,A,3,07,,,,,,,,,,,,0.0,0.0,0.0*24
$GPGSV,2,1,05,15,66,086,48,20,36,274,38,29,76,005,46,40,61,241,44,1*60
$GPGSV,2,2,05,41,74,152,48,,,,,,,,,,,,,1*5D
$GLGSV,1,1,01,84,49,072,41,,,,,,,,,,,,,1*48
$GAGSV,1,1,01,07,88,233,41,,,,,,,,,,,,,7*42
$GNGST,111504.20,0.567,,,,0.149,0.191,0.643*65
$GNVTG,,T,,M,0.62,N,1.15,K,A*3C
$GNRMC,111504.40,A,1221.5014669,N,07635.7620050,E,0.43,,270718,,,D*5B
$GNGGA,111504.40,1221.5014669,N,07635.7620050,E,5,07,1.1,787.336,M,-88.379,M,0.4,*79
$GPGSA,A,3,15,20,29,40,41,,,,,,,,6.7,3.2,5.9*32
$GLGSA,A,3,71,84,,,,,,,,,,,0.0,0.0,0.0*24
$GAGSA,A,3,07,,,,,,,,,,,,0.0,0.0,0.0*24
$GPGSV,2,1,05,15,66,086,49,20,36,274,38,29,76,005,46,40,61,241,44,1*61
$GPGSV,2,2,05,41,74,152,48,,,,,,,,,,,,,1*5D
$GLGSV,1,1,02,71,48,229,35,84,49,072,41,,,,,,,,,1*7E
$GAGSV,1,1,01,07,88,233,41,,,,,,,,,,,,,7*42
$GNGST,111504.40,0.319,,,,0.149,0.189,0.640*66
$GNVTG,,T,,M,0.43,N,0.79,K,A*34
$GNRMC,111504.60,A,1221.5014709,N,07635.7619961,E,0.31,,270718,,,D*5A
$GNGGA,111504.60,1221.5014709,N,07635.7619961,E,5,07,1.1,787.315,M,-88.379,M,0.6,*7E
$GPGSA,A,3,15,20,29,40,41,,,,,,,,6.7,3.2,5.9*32
$GLGSA,A,3,71,84,,,,,,,,,,,0.0,0.0,0.0*24
$GAGSA,A,3,07,,,,,,,,,,,,0.0,0.0,0.0*24
$GPGSV,2,1,05,15,66,086,49,20,36,274,39,29,76,005,46,40,61,241,45,1*61
$GPGSV,2,2,05,41,74,152,48,,,,,,,,,,,,,1*5D
$GLGSV,1,1,02,71,48,229,35,84,49,072,41,,,,,,,,,1*7E
$GAGSV,1,1,01,07,88,233,41,,,,,,,,,,,,,7*42
$GNGST,111504.60,0.303,,,,0.149,0.189,0.639*61
$GNVTG,,T,,M,0.31,N,0.57,K,A*3D
$GNRMC,111504.80,A,1221.5014716,N,07635.7619927,E,0.09,,270718,,,D*53
$GNGGA,111504.80,1221.5014716,N,07635.7619927,E,5,07,1.1,787.341,M,-88.379,M,0.8,*73
$GPGSA,A,3,15,20,29,40,41,,,,,,,,6.7,3.2,5.9*32
$GLGSA,A,3,71,84,,,,,,,,,,,0.0,0.0,0.0*24
$GAGSA,A,3,07,,,,,,,,,,,,0.0,0.0,0.0*24
$GPGSV,2,1,05,15,66,086,48,20,36,274,39,29,76,005,45,40,61,241,44,1*62
$GPGSV,2,2,05,41,74,152,48,,,,,,,,,,,,,1*5D
$GLGSV,1,1,02,71,48,229,35,84,49,072,41,,,,,,,,,1*7E
$GAGSV,1,1,01,07,88,233,41,,,,,,,,,,,,,7*42
$GNGST,111504.80,0.337,,,,0.149,0.189,0.637*66
$GNVTG,,T,,M,0.09,N,0.16,K,A*33
$GNRMC,111505.00,A,1221.5014743,N,07635.7619907,E,0.05,,270718,,,D*54
$GNGGA,111505.00,1221.5014743,N,07635.7619907,E,5,07,1.1,787.340,M,-88.379,M,1.0,*70
$GPGSA,A,3,15,20,29,40,41,,,,,,,,6.7,3.2,5.9*32
$GLGSA,A,3,71,84,,,,,,,,,,,0.0,0.0,0.0*24
$GAGSA,A,3,07,,,,,,,,,,,,0.0,0.0,0.0*24
$GPGSV,2,1,05,15,66,086,48,20,36,274,39,29,76,006,45,40,61,241,44,1*61
$GPGSV,2,2,05,41,74,152,47,,,,,,,,,,,,,1*52
$GLGSV,1,1,02,71,48,229,35,84,49,072,41,,,,,,,,,1*7E
$GAGSV,1,1,01,07,88,233,41,,,,,,,,,,,,,7*42
$GNGST,111505.00,0.402,,,,0.148,0.189,0.636*6E
$GNVTG,,T,,M,0.05,N,0.09,K,A*31
$GNRMC,111505.20,A,1221.5014759,N,07635.7619885,E,0.06,,270718,,,D*55
$GNGGA,111505.20,1221.5014759,N,07635.7619885,E,5,07,1.1,787.339,M,-88.379,M,1.2,*7E
$GPGSA,A,3,15,20,29,40,41,,,,,,,,6.7,3.2,5.9*32
$GLGSA,A,3,71,84,,,,,,,,,,,0.0,0.0,0.0*24
$GAGSA,A,3,07,,,,,,,,,,,,0.0,0.0,0.0*24
$GPGSV,2,1,05,15,66,086,48,20,36,274,39,29,76,006,45,40,61,241,44,1*61
$GPGSV,2,2,05,41,74,152,47,,,,,,,,,,,,,1*52
$GLGSV,1,1,02,71,48,229,35,84,49,072,41,,,,,,,,,1*7E
$GAGSV,1,1,01,07,88,233,40,,,,,,,,,,,,,7*43
$GNGST,111505.20,0.407,,,,0.148,0.189,0.635*6A
$GNVTG,,T,,M,0.06,N,0.11,K,A*3B
$GNRMC,111505.40,A,1221.5014741,N,07635.7619834,E,0.10,,270718,,,D*57
$GNGGA,111505.40,1221.5014741,N,07635.7619834,E,5,07,1.1,787.322,M,-88.379,M,1.4,*77
$GPGSA,A,3,15,20,29,40,41,,,,,,,,6.7,3.2,5.9*32
$GLGSA,A,3,71,84,,,,,,,,,,,0.0,0.0,0.0*24
$GAGSA,A,3,07,,,,,,,,,,,,0.0,0.0,0.0*24
$GPGSV,2,1,05,15,66,086,48,20,36,274,38,29,76,006,46,40,61,241,43,1*64
$GPGSV,2,2,05,41,74,152,47,,,,,,,,,,,,,1*52
$GLGSV,1,1,02,71,48,229,35,84,49,072,41,,,,,,,,,1*7E
$GAGSV,1,1,01,07,88,233,40,,,,,,,,,,,,,7*43
$GNGST,111505.40,0.470,,,,0.148,0.189,0.633*6A
$GNVTG,,T,,M,0.10,N,0.18,K,A*35
$GNRMC,111505.60,A,1221.5014702,N,07635.7619662,E,0.36,,270718,,,D*5B
$GNGGA,111505.60,1221.5014702,N,07635.7619662,E,5,07,1.1,787.353,M,-88.379,M,0.6,*7A
$GPGSA,A,3,15,20,29,40,41,,,,,,,,6.7,3.2,5.9*32
$GLGSA,A,3,71,84,,,,,,,,,,,0.0,0.0,0.0*24
$GAGSA,A,3,07,,,,,,,,,,,,0.0,0.0,0.0*24
$GPGSV,2,1,05,15,66,086,48,20,36,274,38,29,76,006,46,40,61,241,43,1*64
$GPGSV,2,2,05,41,74,152,47,,,,,,,,,,,,,1*52
$GLGSV,1,1,02,71,48,229,35,84,49,072,40,,,,,,,,,1*7F
$GAGSV,1,1,01,07,88,233,40,,,,,,,,,,,,,7*43
$GNGST,111505.60,0.595,,,,0.148,0.188,0.632*62
$GNVTG,,T,,M,0.36,N,0.66,K,A*38
$GNRMC,111505.80,A,1221.5014677,N,07635.7619555,E,0.07,,270718,,,D*53
$GNGGA,111505.80,1221.5014677,N,07635.7619555,E,5,07,1.1,787.389,M,-88.379,M,0.8,*79
$GPGSA,A,3,15,20,29,40,41,,,,,,,,6.7,3.2,5.9*32
$GLGSA,A,3,71,84,,,,,,,,,,,0.0,0.0,0.0*24
$GAGSA,A,3,07,,,,,,,,,,,,0.0,0.0,0.0*24
$GPGSV,2,1,05,15,66,086,49,20,36,274,38,29,76,006,46,40,61,241,43,1*65
$GPGSV,2,2,05,41,74,152,46,,,,,,,,,,,,,1*53
$GLGSV,1,1,02,71,48,229,35,84,49,072,40,,,,,,,,,1*7F
$GAGSV,1,1,01,07,88,233,40,,,,,,,,,,,,,7*43
$GNGST,111505.80,0.559,,,,0.148,0.188,0.631*6F
$GNVTG,,T,,M,0.07,N,0.13,K,A*38
$GNRMC,111506.00,A,1221.5014669,N,07635.7619448,E,0.15,,270718,,,D*59
$GNGGA,111506.00,1221.5014669,N,07635.7619448,E,5,07,1.1,787.394,M,-88.379,M,1.0,*75
$GPGSA,A,3,15,20,29,40,41,,,,,,,,6.7,3.2,5.9*32
$GLGSA,A,3,71,84,,,,,,,,,,,0.0,0.0,0.0*24
$GAGSA,A,3,07,,,,,,,,,,,,0.0,0.0,0.0*24
$GPGSV,2,1,05,15,66,086,49,20,36,274,38,29,76,006,46,40,61,241,43,1*65
$GPGSV,2,2,05,41,74,152,47,,,,,,,,,,,,,1*52
$GLGSV,1,1,02,71,48,229,35,84,49,072,40,,,,,,,,,1*7F
$GAGSV,1,1,01,07,88,233,40,,,,,,,,,,,,,7*43
$GNGST,111506.00,0.553,,,,0.147,0.188,0.629*68
$GNVTG,,T,,M,0.15,N,0.28,K,A*33
$GNRMC,111506.20,A,1221.5014723,N,07635.7619309,E,0.28,,270718,,,D*58
$GNGGA,111506.20,1221.5014723,N,07635.7619309,E,5,07,1.1,787.420,M,-88.379,M,1.2,*70
$GPGSA,A,3,15,20,29,40,41,,,,,,,,6.7,3.2,5.9*32
$GLGSA,A,3,71,84,,,,,,,,,,,0.0,0.0,0.0*24
$GAGSA,A,3,07,,,,,,,,,,,,0.0,0.0,0.0*24
$GPGSV,2,1,05,15,66,086,49,20,36,274,38,29,76,006,45,40,61,241,43,1*66
$GPGSV,2,2,05,41,74,152,47,,,,,,,,,,,,,1*52
$GLGSV,1,1,02,71,48,229,35,84,49,072,40,,,,,,,,,1*7F
$GAGSV,1,1,01,07,88,233,40,,,,,,,,,,,,,7*43
$GNGST,111506.20,0.575,,,,0.148,0.189,0.628*61
$GNVTG,,T,,M,0.28,N,0.52,K,A*30
$GNRMC,111506.40,A,1221.5014711,N,07635.7619258,E,0.03,,270718,,,D*53
$GNGGA,111506.40,1221.5014711,N,07635.7619258,E,5,07,1.1,787.411,M,-88.379,M,0.4,*77
$GPGSA,A,3,15,20,29,40,41,,,,,,,,6.7,3.2,5.9*32
$GLGSA,A,3,71,84,,,,,,,,,,,0.0,0.0,0.0*24
$GAGSA,A,3,07,,,,,,,,,,,,0.0,0.0,0.0*24
$GPGSV,2,1,05,15,66,086,49,20,36,274,38,29,76,006,46,40,61,241,43,1*65
$GPGSV,2,2,05,41,74,152,47,,,,,,,,,,,,,1*52
$GLGSV,1,1,02,71,48,229,35,84,49,072,40,,,,,,,,,1*7F
$GAGSV,1,1,01,07,88,234,40,,,,,,,,,,,,,7*44
$GNGST,111506.40,0.520,,,,0.148,0.188,0.627*69
$GNVTG,,T,,M,0.03,N,0.05,K,A*3B
$GNRMC,111506.60,A,1221.5014685,N,07635.7619249,E,0.08,,270718,,,D*56
$GNGGA,111506.60,1221.5014685,N,07635.7619249,E,5,07,1.1,787.399,M,-88.379,M,0.6,*7C
$GPGSA,A,3,15,20,29,40,41,,,,,,,,6.7,3.2,5.9*32
$GLGSA,A,3,71,84,,,,,,,,,,,0.0,0.0,0.0*24
$GAGSA,A,3,07,,,,,,,,,,,,0.0,0.0,0.0*24
$GPGSV,2,1,05,15,66,086,49,20,36,274,38,29,76,006,46,40,61,241,43,1*65
$GPGSV,2,2,05,41,74,152,47,,,,,,,,,,,,,1*52
$GLGSV,1,1,02,71,48,229,35,84,49,072,40,,,,,,,,,1*7F
$GAGSV,1,1,01,07,88,234,40,,,,,,,,,,,,,7*44
$GNGST,111506.60,0.507,,,,0.147,0.188,0.626*60
$GNVTG,,T,,M,0.08,N,0.15,K,A*31
$GNRMC,111506.80,A,1221.5014661,N,07635.7619296,E,0.29,,270718,,,D*53
$GNGGA,111506.80,1221.5014661,N,07635.7619296,E,5,07,1.1,787.424,M,-88.379,M,0.8,*75
$GPGSA,A,3,15,20,29,40,41,,,,,,,,6.7,3.2,5.9*32
$GLGSA,A,3,71,84,,,,,,,,,,,0.0,0.0,0.0*24
$GAGSA,A,3,07,,,,,,,,,,,,0.0,0.0,0.0*24
$GPGSV,2,1,05,15,66,086,49,20,36,274,38,29,76,006,45,40,61,241,43,1*66
$GPGSV,2,2,05,41,74,152,47,,,,,,,,,,,,,1*52
$GLGSV,1,1,02,71,48,229,35,84,49,072,40,,,,,,,,,1*7F
$GAGSV,1,1,01,07,88,234,40,,,,,,,,,,,,,7*44
$GNGST,111506.80,0.542,,,,0.147,0.188,0.624*6D
$GNVTG,,T,,M,0.29,N,0.54,K,A*37
$GNRMC,111507.00,A,1221.5014609,N,07635.7619433,E,0.43,,270718,,,D*51
$GNGGA,111507.00,1221.5014609,N,07635.7619433,E,5,07,1.1,787.444,M,-88.379,M,1.0,*74
$GPGSA,A,3,15,20,29,40,41,,,,,,,,6.7,3.2,5.9*32
$GLGSA,A,3,71,84,,,,,,,,,,,0.0,0.0,0.0*24
$GAGSA,A,3,07,,,,,,,,,,,,0.0,0.0,0.0*24
$GPGSV,2,1,05,15,66,086,49,20,36,274,38,29,76,006,45,40,61,241,42,1*67
$GPGSV,2,2,05,41,74,152,48,,,,,,,,,,,,,1*5D
$GLGSV,1,1,02,71,48,229,35,84,49,072,40,,,,,,,,,1*7F
$GAGSV,1,1,01,07,88,234,40,,,,,,,,,,,,,7*44
$GNGST,111507.00,0.569,,,,0.147,0.187,0.623*65
$GNVTG,,T,,M,0.43,N,0.79,K,A*34
$GNRMC,111507.20,A,1221.5014485,N,07635.7619583,E,0.33,,270718,,,D*58
$GNGGA,111507.20,1221.5014485,N,07635.7619583,E,5,07,1.1,787.439,M,-88.379,M,1.2,*72
$GPGSA,A,3,15,20,29,40,41,,,,,,,,6.7,3.2,5.9*32
$GLGSA,A,3,71,84,,,,,,,,,,,0.0,0.0,0.0*24
$GAGSA,A,3,07,,,,,,,,,,,,0.0,0.0,0.0*24
$GPGSV,2,1,05,15,66,086,48,20,36,274,36,29,76,006,45,40,61,241,43,1*69
$GPGSV,2,2,05,41,74,152,47,,,,,,,,,,,,,1*52
$GLGSV,1,1,02,71,48,229,35,84,49,072,40,,,,,,,,,1*7F
$GAGSV,1,1,01,07,88,234,40,,,,,,,,,,,,,7*44
$GNGST,111507.20,0.558,,,,0.147,0.187,0.622*64
$GNVTG,,T,,M,0.33,N,0.62,K,A*39
$GNRMC,111507.40,A,1221.5014222,N,07635.7619661,E,0.56,,270718,,,D*59
$GNGGA,111507.40,1221.5014222,N,07635.7619661,E,5,07,1.1,787.384,M,-88.379,M,1.4,*77
$GPGSA,A,3,15,20,29,40,41,,,,,,,,6.7,3.2,5.9*32
$GLGSA,A,3,71,84,,,,,,,,,,,0.0,0.0,0.0*24
$GAGSA,A,3,07,,,,,,,,,,,,0.0,0.0,0.0*24
$GPGSV,2,1,05,15,66,086,50,20,36,274,36,29,76,006,46,40,61,241,45,1*65
$GPGSV,2,2,05,41,74,152,50,,,,,,,,,,,,,1*54
$GLGSV,1,1,02,71,48,229,35,84,49,072,43,,,,,,,,,1*7C
$GAGSV,1,1,01,07,88,234,40,,,,,,,,,,,,,7*44
$GNGST,111507.40,0.492,,,,0.146,0.187,0.620*66
$GNVTG,,T,,M,0.56,N,1.03,K,A*3C
$GNRMC,111507.60,A,1221.5014069,N,07635.7619833,E,0.46,,270718,,,D*5E
$GNGGA,111507.60,1221.5014069,N,07635.7619833,E,5,08,1.1,787.214,M,-88.379,M,1.6,*74
$GPGSA,A,3,10,15,20,29,40,41,,,,,,,4.4,2.8,3.4*32
$GLGSA,A,3,71,84,,,,,,,,,,,0.0,0.0,0.0*24
$GAGSA,A,3,07,,,,,,,,,,,,0.0,0.0,0.0*24
$GPGSV,2,1,06,10,19,249,38,15,66,086,51,20,36,274,36,29,76,006,47,1*6E
$GPGSV,2,2,06,40,61,241,48,41,74,152,51,,,,,,,,,1*6E
$GLGSV,1,1,02,71,48,229,39,84,49,072,45,,,,,,,,,1*76
$GAGSV,1,1,01,07,88,234,42,,,,,,,,,,,,,7*46
$GNGST,111507.60,0.344,,,,0.146,0.186,0.618*62
$GNVTG,,T,,M,0.46,N,0.85,K,A*32
$GNRMC,111507.80,A,1221.5013857,N,07635.7619889,E,0.35,,270718,,,D*57
$GNGGA,111507.80,1221.5013857,N,07635.7619889,E,5,08,1.1,787.158,M,-88.379,M,1.8,*7C
$GPGSA,A,3,10,15,20,29,40,41,,,,,,,4.4,2.8,3.4*32
$GLGSA,A,3,71,84,,,,,,,,,,,0.0,0.0,0.0*24
$GAGSA,A,3,07,,,,,,,,,,,,0.0,0.0,0.0*24
$GPGSV,2,1,06,10,19,249,41,15,66,086,51,20,36,274,36,29,76,006,47,1*60
$GPGSV,2,2,06,40,61,241,48,41,74,152,51,,,,,,,,,1*6E
$GLGSV,1,1,02,71,48,229,40,84,49,072,45,,,,,,,,,1*78
$GAGSV,1,1,01,07,88,234,42,,,,,,,,,,,,,7*46
$GNGST,111507.80,0.285,,,,0.146,0.186,0.616*6E
$GNVTG,,T,,M,0.35,N,0.65,K,A*38
$GNRMC,111508.00,A,1221.5013655,N,07635.7619813,E,0.42,,270718,,,D*5F
$GNGGA,111508.00,1221.5013655,N,07635.7619813,E,5,08,1.1,787.156,M,-88.379,M,2.0,*71
$GPGSA,A,3,10,15,20,29,40,41,,,,,,,4.4,2.8,3.4*32
$GLGSA,A,3,71,84,,,,,,,,,,,0.0,0.0,0.0*24
$GAGSA,A,3,07,,,,,,,,,,,,0.0,0.0,0.0*24
$GPGSV,2,1,06,10,19,249,45,15,66,086,51,20,36,274,38,29,76,006,48,1*65
$GPGSV,2,2,06,40,61,241,48,41,74,152,51,,,,,,,,,1*6E
$GLGSV,1,1,02,71,48,229,42,84,49,072,46,,,,,,,,,1*79
$GAGSV,1,1,01,07,88,234,42,,,,,,,,,,,,,7*46
$GNGST,111508.00,0.244,,,,0.146,0.186,0.613*61
$GNVTG,,T,,M,0.42,N,0.77,K,A*3B
$GNRMC,111508.20,A,1221.5013395,N,07635.7619653,E,0.60,,270718,,,D*5E
$GNGGA,111508.20,1221.5013395,N,07635.7619653,E,5,08,1.1,787.193,M,-88.379,M,2.2,*7B
$GPGSA,A,3,10,15,20,29,40,41,,,,,,,4.4,2.8,3.4*32
$GLGSA,A,3,71,84,,,,,,,,,,,0.0,0.0,0.0*24
$GAGSA,A,3,07,,,,,,,,,,,,0.0,0.0,0.0*24
$GPGSV,2,1,06,10,19,249,45,15,66,086,50,20,36,274,40,29,76,006,47,1*64
$GPGSV,2,2,06,40,61,241,49,41,74,152,51,,,,,,,,,1*6F
$GLGSV,1,1,02,71,48,229,42,84,49,072,44,,,,,,,,,1*7B
$GAGSV,1,1,01,07,88,234,43,,,,,,,,,,,,,7*47
$GNGST,111508.20,0.254,,,,0.146,0.187,0.612*62
$GNVTG,,T,,M,0.60,N,1.11,K,A*3A
$GNRMC,111508.40,A,1221.5013177,N,07635.7619550,E,0.41,,270718,,,D*55
$GNGGA,111508.40,1221.5013177,N,07635.7619550,E,5,08,1.1,787.209,M,-88.379,M,2.4,*75
$GPGSA,A,3,10,15,20,29,40,41,,,,,,,4.4,2.8,3.4*32
$GLGSA,A,3,71,84,,,,,,,,,,,0.0,0.0,0.0*24
$GAGSA,A,3,07,,,,,,,,,,,,0.0,0.0,0.0*24
$GPGSV,2,1,06,10,19,249,43,15,66,086,50,20,36,274,40,29,76,006,47,1*62
$GPGSV,2,2,06,40,61,241,48,41,74,152,50,,,,,,,,,1*6F
$GLGSV,1,1,02,71,48,229,42,84,49,072,44,,,,,,,,,1*7B
$GAGSV,1,1,01,07,88,234,43,,,,,,,,,,,,,7*47
$GNGST,111508.40,0.263,,,,0.146,0.186,0.610*63
$GNVTG,,T,,M,0.41,N,0.75,K,A*3A
$GNRMC,111508.60,A,1221.5012998,N,07635.7619406,E,0.39,,270718,,,D*52
$GNGGA,111508.60,1221.5012998,N,07635.7619406,E,5,08,1.1,787.157,M,-88.379,M,2.6,*77
$GPGSA,A,3,10,15,20,29,40,41,,,,,,,4.4,2.8,3.4*32
$GLGSA,A,3,71,84,,,,,,,,,,,0.0,0.0,0.0*24
$GAGSA,A,3,07,,,,,,,,,,,,0.0,0.0,0.0*24
$GPGSV,2,1,06,10,19,249,38,15,66,086,51,20,36,274,40,29,76,006,47,1*6F
$GPGSV,2,2,06,40,61,241,48,41,74,152,51,,,,,,,,,1*6E
$GLGSV,1,1,02,71,48,229,42,84,49,072,44,,,,,,,,,1*7B
$GAGSV,1,1,01,07,88,234,44,,,,,,,,,,,,,7*40
$GNGST,111508.60,0.311,,,,0.146,0.186,0.607*63
$GNVTG,,T,,M,0.39,N,0.72,K,A*32
$GNRMC,111508.80,A,1221.5012881,N,07635.7619180,E,0.41,,270718,,,D*51
$GNGGA,111508.80,1221.5012881,N,07635.7619180,E,5,08,1.1,787.139,M,-88.379,M,2.8,*7D
$GPGSA,A,3,10,15,20,29,40,41,,,,,,,4.4,2.8,3.4*32
$GLGSA,A,3,71,84,,,,,,,,,,,0.0,0.0,0.0*24
$GAGSA,A,3,07,,,,,,,,,,,,0.0,0.0,0.0*24
$GPGSV,2,1,06,10,19,249,39,15,66,086,50,20,36,274,40,29,76,006,47,1*6F
$GPGSV,2,2,06,40,61,241,46,41,74,152,50,,,,,,,,,1*61
$GLGSV,1,1,02,71,48,229,43,84,49,072,43,,,,,,,,,1*7D
$GAGSV,1,1,01,07,88,234,43,,,,,,,,,,,,,7*47
$GNGST,111508.80,0.286,,,,0.145,0.185,0.605*60
$GNVTG,,T,,M,0.41,N,0.76,K,A*39
$GNRMC,111509.00,A,1221.5012586,N,07635.7618889,E,0.81,,270718,,,D*5F
$GNGGA,111509.00,1221.5012586,N,07635.7618889,E,5,08,1.1,787.101,M,-88.379,M,3.0,*7D
$GPGSA,A,3,10,15,20,29,40,41,,,,,,,4.4,2.8,3.4*32
$GLGSA,A,3,71,84,,,,,,,,,,,0.0,0.0,0.0*24
$GAGSA,A,3,07,,,,,,,,,,,,0.0,0.0,0.0*24
$GPGSV,2,1,06,10,19,249,39,15,66,086,50,20,36,274,40,29,76,006,47,1*6F
$GPGSV,2,2,06,40,61,241,46,41,74,152,50,,,,,,,,,1*61
$GLGSV,1,1,02,71,48,229,41,84,49,072,41,,,,,,,,,1*7D
$GAGSV,1,1,01,07,88,234,43,,,,,,,,,,,,,7*47
$GNGST,111509.00,0.272,,,,0.145,0.185,0.603*64
$GNVTG,,T,,M,0.81,N,1.49,K,A*38
$GNRMC,111509.20,A,1221.5011997,N,07635.7618704,E,1.00,195.81,270718,,,D*4A
$GNGGA,111509.20,1221.5011997,N,07635.7618704,E,5,09,1.1,786.989,M,-88.379,M,3.2,*70
$GPGSA,A,3,10,15,20,25,29,40,41,,,,,,4.0,2.2,3.4*3B
$GLGSA,A,3,71,84,,,,,,,,,,,0.0,0.0,0.0*24
$GAGSA,A,3,07,,,,,,,,,,,,0.0,0.0,0.0*24
$GPGSV,2,1,07,10,19,249,42,15,66,086,51,20,36,274,40,25,31,209,35,1*64
$GPGSV,2,2,07,29,76,006,47,40,61,241,48,41,74,152,50,,,,,1*51
$GLGSV,1,1,02,71,48,229,42,84,49,072,43,,,,,,,,,1*7C
$GAGSV,1,1,01,07,88,234,43,,,,,,,,,,,,,7*47
$GNGST,111509.20,0.244,,,,0.145,0.185,0.600*60
$GNVTG,195.81,T,,M,1.00,N,1.86,K,A*29
$GNRMC,111509.40,A,1221.5011288,N,07635.7618544,E,1.06,198.96,270718,,,D*42
$GNGGA,111509.40,1221.5011288,N,07635.7618544,E,5,09,1.1,786.860,M,-88.379,M,3.4,*75
$GPGSA,A,3,10,15,20,25,29,40,41,,,,,,4.0,2.2,3.4*3B
$GLGSA,A,3,71,84,,,,,,,,,,,0.0,0.0,0.0*24
$GAGSA,A,3,07,,,,,,,,,,,,0.0,0.0,0.0*24
$GPGSV,2,1,07,10,19,249,40,15,66,086,50,20,36,274,41,25,31,209,38,1*6B
$GPGSV,2,2,07,29,76,006,46,40,61,241,47,41,74,152,51,,,,,1*5E
$GLGSV,1,1,02,71,48,229,39,84,49,072,43,,,,,,,,,1*70
$GAGSV,1,1,01,07,88,234,44,,,,,,,,,,,,,7*40
$GNGST,111509.40,0.211,,,,0.145,0.185,0.598*64
$GNVTG,198.96,T,,M,1.06,N,1.95,K,A*26
$GNRMC,111509.60,A,1221.5010546,N,07635.7618577,E,1.78,170.97,270718,,,D*4A
$GNGGA,111509.60,1221.5010546,N,07635.7618577,E,5,08,1.1,786.759,M,-88.379,M,0.6,*76
$GPGSA,A,3,10,15,20,29,40,41,,,,,,,4.4,2.8,3.4*32
$GLGSA,A,3,71,84,,,,,,,,,,,0.0,0.0,0.0*24
$GAGSA,A,3,07,,,,,,,,,,,,0.0,0.0,0.0*24
$GPGSV,2,1,06,10,19,249,43,15,66,086,50,20,36,274,43,29,76,006,47,1*61
$GPGSV,2,2,06,40,61,241,47,41,74,152,51,,,,,,,,,1*61
$GLGSV,1,1,02,71,48,229,41,84,49,072,43,,,,,,,,,1*7F
$GAGSV,1,1,01,07,88,234,44,,,,,,,,,,,,,7*40
$GNGST,111509.60,0.197,,,,0.144,0.184,0.596*65
$GNVTG,170.97,T,,M,1.78,N,3.29,K,A*2D
$GNRMC,111509.80,A,1221.5009682,N,07635.7618590,E,1.92,172.37,270718,,,D*42
$GNGGA,111509.80,1221.5009682,N,07635.7618590,E,5,08,1.1,786.729,M,-88.379,M,0.8,*7B
$GPGSA,A,3,10,15,20,29,40,41,,,,,,,4.4,2.8,3.4*32
$GLGSA,A,3,71,84,,,,,,,,,,,0.0,0.0,0.0*24
$GAGSA,A,3,07,,,,,,,,,,,,0.0,0.0,0.0*24
$GPGSV,2,1,06,10,19,249,44,15,66,086,50,20,36,274,44,29,76,006,46,1*60
$GPGSV,2,2,06,40,61,241,49,41,74,152,50,,,,,,,,,1*6E
$GLGSV,1,1,02,71,48,229,37,84,49,072,44,,,,,,,,,1*79
$GAGSV,1,1,01,07,88,234,43,,,,,,,,,,,,,7*47
$GNGST,111509.80,0.209,,,,0.144,0.184,0.593*6A
$GNVTG,172.37,T,,M,1.92,N,3.56,K,A*29
$GNRMC,111510.00,A,1221.5008710,N,07635.7618583,E,1.98,179.21,270718,,,D*4D
$GNGGA,111510.00,1221.5008710,N,07635.7618583,E,5,06,1.1,786.734,M,-88.379,M,1.0,*79
$GPGSA,A,3,10,15,20,29,40,41,,,,,,,4.4,2.8,3.4*32
$GLGSA,A,3,84,,,,,,,,,,,,0.0,0.0,0.0*22
$GAGSA,A,3,07,,,,,,,,,,,,0.0,0.0,0.0*24
$GPGSV,2,1,06,10,19,249,42,15,66,086,50,20,36,274,44,29,76,006,46,1*66
$GPGSV,2,2,06,40,61,241,49,41,74,152,50,,,,,,,,,1*6E
$GLGSV,1,1,01,84,49,072,45,,,,,,,,,,,,,1*4C
$GAGSV,1,1,01,07,88,234,43,,,,,,,,,,,,,7*47
$GNGST,111510.00,0.241,,,,0.145,0.185,0.592*67
$GNVTG,179.21,T,,M,1.98,N,3.67,K,A*2D
$GNRMC,111510.20,A,1221.5007927,N,07635.7618479,E,1.54,196.62,270718,,,D*48
$GNGGA,111510.20,1221.5007927,N,07635.7618479,E,5,08,1.1,786.700,M,-88.379,M,1.2,*71
$GPGSA,A,3,10,15,20,29,40,41,,,,,,,4.4,2.8,3.4*32
$GLGSA,A,3,71,84,,,,,,,,,,,0.0,0.0,0.0*24
$GAGSA,A,3,07,,,,,,,,,,,,0.0,0.0,0.0*24
$GPGSV,2,1,06,10,19,249,42,15,66,086,50,20,36,274,44,29,76,006,46,1*66
$GPGSV,2,2,06,40,61,241,47,41,74,152,49,,,,,,,,,1*68
$GLGSV,1,1,02,71,48,229,37,84,49,072,44,,,,,,,,,1*79
$GAGSV,1,1,01,07,88,234,43,,,,,,,,,,,,,7*47
$GNGST,111510.20,0.152,,,,0.144,0.184,0.590*66
$GNVTG,196.62,T,,M,1.54,N,2.85,K,A*26
$GNRMC,111510.40,A,1221.5007054,N,07635.7618165,E,1.86,206.42,270718,,,D*4C
$GNGGA,111510.40,1221.5007054,N,07635.7618165,E,5,06,1.1,786.725,M,-88.379,M,0.4,*7C
$GPGSA,A,3,10,15,20,29,40,41,,,,,,,4.4,2.8,3.4*32
$GLGSA,A,3,84,,,,,,,,,,,,0.0,0.0,0.0*22
$GAGSA,A,3,07,,,,,,,,,,,,0.0,0.0,0.0*24
$GPGSV,2,1,06,10,19,249,42,15,66,086,50,20,36,274,45,29,76,006,47,1*66
$GPGSV,2,2,06,40,61,241,46,41,74,152,50,,,,,,,,,1*61
$GLGSV,1,1,01,84,49,072,43,,,,,,,,,,,,,1*4A
$GAGSV,1,1,01,07,88,234,43,,,,,,,,,,,,,7*47
$GNGST,111510.40,0.160,,,,0.144,0.185,0.589*68
$GNVTG,206.42,T,,M,1.86,N,3.45,K,A*2C
$GNRMC,111510.60,A,1221.5006129,N,07635.7617958,E,1.77,191.17,270718,,,D*4E
$GNGGA,111510.60,1221.5006129,N,07635.7617958,E,5,06,1.1,786.767,M,-88.379,M,0.6,*79
$GPGSA,A,3,10,15,20,29,40,41,,,,,,,4.4,2.8,3.4*32
$GLGSA,A,3,84,,,,,,,,,,,,0.0,0.0,0.0*22
$GAGSA,A,3,07,,,,,,,,,,,,0.0,0.0,0.0*24
$GPGSV,2,1,06,10,19,249,43,15,66,086,49,20,36,274,43,29,76,006,46,1*68
$GPGSV,2,2,06,40,61,241,46,41,74,152,50,,,,,,,,,1*61
$GLGSV,1,1,01,84,49,072,43,,,,,,,,,,,,,1*4A
$GAGSV,1,1,01,07,88,234,43,,,,,,,,,,,,,7*47
$GNGST,111510.60,0.143,,,,0.144,0.185,0.587*65
$GNVTG,191.17,T,,M,1.77,N,3.28,K,A*24
$GNRMC,111510.80,A,1221.5005276,N,07635.7617776,E,1.76,193.84,270718,,,D*41
$GNGGA,111510.80,1221.5005276,N,07635.7617776,E,5,06,1.1,786.741,M,-88.379,M,0.8,*75
$GPGSA,A,3,10,15,20,29,40,41,,,,,,,4.4,2.8,3.4*32
$GLGSA,A,3,84,,,,,,,,,,,,0.0,0.0,0.0*22
$GAGSA,A,3,07,,,,,,,,,,,,0.0,0.0,0.0*24
$GPGSV,2,1,06,10,19,249,42,15,66,086,49,20,36,274,44,29,76,006,45,1*6D
$GPGSV,2,2,06,40,61,241,45,41,74,152,50,,,,,,,,,1*62
$GLGSV,1,1,01,84,49,072,43,,,,,,,,,,,,,1*4A
$GAGSV,1,1,01,07,88,234,43,,,,,,,,,,,,,7*47
$GNGST,111510.80,0.094,,,,0.144,0.185,0.586*61
$GNVTG,193.84,T,,M,1.76,N,3.26,K,A*23
$GNRMC,111511.00,A,1221.5004130,N,07635.7617756,E,2.37,180.22,270718,,,D*42
$GNGGA,111511.00,1221.5004130,N,07635.7617756,E,5,06,1.1,786.648,M,-88.379,M,1.0,*7F
$GPGSA,A,3,10,15,20,29,40,41,,,,,,,4.4,2.8,3.4*32
$GLGSA,A,3,84,,,,,,,,,,,,0.0,0.0,0.0*22
$GAGSA,A,3,07,,,,,,,,,,,,0.0,0.0,0.0*24
$GPGSV,2,1,06,10,19,249,43,15,66,086,50,20,36,274,42,29,76,006,46,1*61
$GPGSV,2,2,06,40,61,241,43,41,74,152,51,,,,,,,,,1*65
$GLGSV,1,1,01,84,49,072,43,,,,,,,,,,,,,1*4A
$GAGSV,1,1,01,07,88,234,43,,,,,,,,,,,,,7*47
$GNGST,111511.00,0.091,,,,0.144,0.185,0.584*6F
$GNVTG,180.22,T,,M,2.37,N,4.39,K,A*22
$GNRMC,111511.20,A,1221.5003072,N,07635.7617678,E,1.91,178.37,270718,,,D*41
$GNGGA,111511.20,1221.5003072,N,07635.7617678,E,5,06,1.1,786.619,M,-88.379,M,1.2,*76
$GPGSA,A,3,10,15,20,29,40,41,,,,,,,4.4,2.8,3.4*32
$GLGSA,A,3,84,,,,,,,,,,,,0.0,0.0,0.0*22
$GAGSA,A,3,07,,,,,,,,,,,,0.0,0.0,0.0*24
$GPGSV,2,1,06,10,19,249,42,15,66,086,50,20,36,274,43,29,76,006,46,1*61
$GPGSV,2,2,06,40,61,241,43,41,74,152,50,,,,,,,,,1*64
$GLGSV,1,1,01,84,49,072,43,,,,,,,,,,,,,1*4A
$GAGSV,1,1,01,07,88,235,43,,,,,,,,,,,,,7*46
$GNGST,111511.20,0.065,,,,0.144,0.184,0.582*61
$GNVTG,178.37,T,,M,1.91,N,3.53,K,A*25
$GNRMC,111511.40,A,1221.5002279,N,07635.7617552,E,1.20,189.65,270718,,,D*47
$GNGGA,111511.40,1221.5002279,N,07635.7617552,E,5,06,1.1,786.602,M,-88.379,M,1.4,*7F
$GPGSA,A,3,10,15,20,29,40,41,,,,,,,4.4,2.8,3.4*32
$GLGSA,A,3,84,,,,,,,,,,,,0.0,0.0,0.0*22
$GAGSA,A,3,07,,,,,,,,,,,,0.0,0.0,0.0*24
$GPGSV,2,1,06,10,19,249,41,15,66,086,50,20,36,274,44,29,76,006,48,1*6B
$GPGSV,2,2,06,40,61,241,43,41,74,152,49,,,,,,,,,1*6C
$GLGSV,1,1,01,84,49,072,44,,,,,,,,,,,,,1*4D
$GAGSV,1,1,01,07,88,235,43,,,,,,,,,,,,,7*46
$GNGST,111511.40,0.144,,,,0.144,0.184,0.580*67
$GNVTG,189.65,T,,M,1.20,N,2.23,K,A*20
$GNRMC,111511.60,A,1221.5000982,N,07635.7617223,E,2.32,195.96,270718,,,D*48
$GNGGA,111511.60,1221.5000982,N,07635.7617223,E,5,08,1.1,786.684,M,-88.379,M,0.6,*72
$GPGSA,A,3,10,15,20,29,40,41,,,,,,,4.4,2.8,3.4*32
$GLGSA,A,3,71,84,,,,,,,,,,,0.0,0.0,0.0*24
$GAGSA,A,3,07,,,,,,,,,,,,0.0,0.0,0.0*24
$GPGSV,2,1,06,10,19,249,39,15,66,086,50,20,36,274,43,29,76,006,47,1*6C
$GPGSV,2,2,06,40,61,241,43,41,74,152,50,,,,,,,,,1*64
$GLGSV,1,1,02,71,48,229,35,84,49,072,43,,,,,,,,,1*7C
$GAGSV,1,1,01,07,88,235,43,,,,,,,,,,,,,7*46
$GNGST,111511.60,0.065,,,,0.143,0.183,0.578*60
$GNVTG,195.96,T,,M,2.32,N,4.29,K,A*2D
$GNRMC,111511.80,A,1221.5000204,N,07635.7616979,E,1.43,201.05,270718,,,D*47
$GNGGA,111511.80,1221.5000204,N,07635.7616979,E,5,08,1.1,786.675,M,-88.379,M,0.8,*7C
$GPGSA,A,3,10,15,20,29,40,41,,,,,,,4.4,2.8,3.4*32
$GLGSA,A,3,71,84,,,,,,,,,,,0.0,0.0,0.0*24
$GAGSA,A,3,07,,,,,,,,,,,,0.0,0.0,0.0*24
$GPGSV,2,1,06,10,19,249,43,15,66,086,51,20,36,274,43,29,76,006,47,1*60
$GPGSV,2,2,06,40,61,241,41,41,74,152,50,,,,,,,,,1*66
$GLGSV,1,1,02,71,48,229,35,84,49,072,44,,,,,,,,,1*7B
$GAGSV,1,1,01,07,88,235,43,,,,,,,,,,,,,7*46
$GNGST,111511.80,0.086,,,,0.143,0.183,0.576*6D
$GNVTG,201.05,T,,M,1.43,N,2.65,K,A*22
$GNRMC,111512.00,A,1221.4999437,N,07635.7616840,E,1.28,187.93,270718,,,D*46
$GNGGA,111512.00,1221.4999437,N,07635.7616840,E,5,08,1.1,786.673,M,-88.379,M,1.0,*7D
$GPGSA,A,3,10,15,20,29,40,41,,,,,,,4.4,2.8,3.4*32
$GLGSA,A,3,71,84,,,,,,,,,,,0.0,0.0,0.0*24
$GAGSA,A,3,07,,,,,,,,,,,,0.0,0.0,0.0*24
$GPGSV,2,1,06,10,19,249,44,15,66,086,49,20,36,274,42,29,76,006,46,1*6E
$GPGSV,2,2,06,40,61,241,39,41,74,152,50,,,,,,,,,1*69
$GLGSV,1,1,02,71,48,229,35,84,49,072,44,,,,,,,,,1*7B
$GAGSV,1,1,01,07,88,235,43,,,,,,,,,,,,,7*46
$GNGST,111512.00,0.057,,,,0.143,0.182,0.574*69
$GNVTG,187.93,T,,M,1.28,N,2.37,K,A*2A
$GNRMC,111512.20,A,1221.4998755,N,07635.7616865,E,1.11,167.99,270718,,,D*4B
$GNGGA,111512.20,1221.4998755,N,07635.7616865,E,5,06,1.1,786.604,M,-88.379,M,1.2,*72
$GPGSA,A,3,10,15,20,29,40,41,,,,,,,4.4,2.8,3.4*32
$GLGSA,A,3,84,,,,,,,,,,,,0.0,0.0,0.0*22
$GAGSA,A,3,07,,,,,,,,,,,,0.0,0.0,0.0*24
$GPGSV,2,1,06,10,19,249,42,15,66,086,49,20,36,274,41,29,76,006,46,1*6B
$GPGSV,2,2,06,40,61,241,40,41,74,152,49,,,,,,,,,1*6F
$GLGSV,1,1,01,84,49,072,42,,,,,,,,,,,,,1*4B
$GAGSV,1,1,01,07,88,235,42,,,,,,,,,,,,,7*47
$GNGST,111512.20,0.020,,,,0.143,0.183,0.573*6D
$GNVTG,167.99,T,,M,1.11,N,2.06,K,A*26
$GNRMC,111512.40,A,1221.4997822,N,07635.7616767,E,1.77,187.18,270718,,,D*47
$GNGGA,111512.40,1221.4997822,N,07635.7616767,E,5,06,1.1,786.520,M,-88.379,M,0.4,*7B
$GPGSA,A,3,10,15,20,24,29,40,41,,,,,,3.2,2.3,2.3*38
$GLGSA,A,3,84,,,,,,,,,,,,0.0,0.0,0.0*22
$GAGSA,A,3,07,,,,,,,,,,,,0.0,0.0,0.0*24
$GPGSV,2,1,07,10,19,249,38,15,66,086,49,20,36,274,41,24,16,146,36,1*6E
$GPGSV,2,2,07,29,76,006,45,40,61,241,38,41,74,152,48,,,,,1*5D
$GLGSV,1,1,01,84,49,072,43,,,,,,,,,,,,,1*4A
$GAGSV,1,1,01,07,88,235,43,,,,,,,,,,,,,7*46
$GNGST,111512.40,0.130,,,,0.143,0.183,0.572*6A
$GNVTG,187.18,T,,M,1.77,N,3.29,K,A*2D
$GNRMC,111512.60,A,1221.4996292,N,07635.7616494,E,3.10,189.78,270718,,,D*41
$GNGGA,111512.60,1221.4996292,N,07635.7616494,E,5,04,1.1,786.533,M,-88.379,M,0.6,*74
$GPGSA,A,3,15,20,29,41,,,,,,,,,8.3,3.9,7.4*38
$GLGSA,A,3,84,,,,,,,,,,,,0.0,0.0,0.0*22
$GAGSA,A,3,07,,,,,,,,,,,,0.0,0.0,0.0*24
$GPGSV,1,1,04,15,66,086,50,20,36,274,38,29,76,006,46,41,74,152,50,1*69
$GLGSV,1,1,01,84,49,072,42,,,,,,,,,,,,,1*4B
$GAGSV,1,1,01,07,88,235,43,,,,,,,,,,,,,7*46
$GNGST,111512.60,0.161,,,,0.144,0.185,0.572*6D
$GNVTG,189.78,T,,M,3.10,N,5.73,K,A*2F
$GNRMC,111512.80,A,1221.4995660,N,07635.7616428,E,1.52,179.57,270718,,,D*44
$GNGGA,111512.80,1221.4995660,N,07635.7616428,E,5,06,1.1,786.527,M,-88.379,M,0.8,*7E
$GPGSA,A,3,10,15,20,29,40,41,,,,,,,4.4,2.8,3.4*32
$GLGSA,A,3,84,,,,,,,,,,,,0.0,0.0,0.0*22
$GAGSA,A,3,07,,,,,,,,,,,,0.0,0.0,0.0*24
$GPGSV,2,1,06,10,19,249,36,15,66,086,50,20,36,274,38,29,76,006,46,1*6E
$GPGSV,2,2,06,40,61,241,35,41,74,152,49,,,,,,,,,1*6D
$GLGSV,1,1,01,84,49,072,44,,,,,,,,,,,,,1*4D
$GAGSV,1,1,01,07,88,235,43,,,,,,,,,,,,,7*46
$GNGST,111512.80,0.078,,,,0.143,0.183,0.570*69
$GNVTG,179.57,T,,M,1.52,N,2.81,K,A*23
$GNRMC,111513.00,A,1221.4994396,N,07635.7616082,E,2.48,200.16,270718,,,D*44
$GNGGA,111513.00,1221.4994396,N,07635.7616082,E,5,05,1.1,786.588,M,-88.379,M,1.0,*71
$GPGSA,A,3,10,15,20,29,41,,,,,,,,6.3,3.6,5.2*3C
$GLGSA,A,3,84,,,,,,,,,,,,0.0,0.0,0.0*22
$GAGSA,A,3,07,,,,,,,,,,,,0.0,0.0,0.0*24
$GPGSV,2,1,05,10,19,249,40,15,66,086,51,20,36,274,41,29,76,006,47,1*62
$GPGSV,2,2,05,41,74,152,49,,,,,,,,,,,,,1*5C
$GLGSV,1,1,01,84,49,072,43,,,,,,,,,,,,,1*4A
$GAGSV,1,1,01,07,88,235,43,,,,,,,,,,,,,7*46
$GNGST,111513.00,0.148,,,,0.143,0.185,0.569*6C
$GNVTG,200.16,T,,M,2.48,N,4.60,K,A*2A
$GNRMC,111513.20,A,1221.4993720,N,07635.7616069,E,2.33,194.64,270718,,,D*4A
$GNGGA,111513.20,1221.4993720,N,07635.7616069,E,4,07,1.1,786.330,M,-88.379,M,1.2,*7C
$GPGSA,A,3,10,15,20,25,29,41,,,,,,,6.0,3.0,5.2*3E
$GLGSA,A,3,71,84,,,,,,,,,,,0.0,0.0,0.0*24
$GAGSA,A,3,07,,,,,,,,,,,,0.0,0.0,0.0*24
$GPGSV,2,1,06,10,19,249,38,15,66,086,50,20,36,274,41,25,31,209,36,1*6B
$GPGSV,2,2,06,29,76,006,46,41,74,152,50,,,,,,,,,1*69
$GLGSV,1,1,02,71,48,229,37,84,49,072,42,,,,,,,,,1*7F
$GAGSV,1,1,01,07,88,235,43,,,,,,,,,,,,,7*46
$GNGST,111513.20,0.089,,,,0.013,0.022,0.099*60
$GNVTG,194.64,T,,M,2.33,N,4.31,K,D*2C
$GNRMC,111513.40,A,1221.4992098,N,07635.7615618,E,2.18,189.90,270718,,,D*44
$GNGGA,111513.40,1221.4992098,N,07635.7615618,E,5,05,1.2,786.648,M,-88.379,M,1.4,*70
$GPGSA,A,3,10,15,20,25,29,41,,,,,,,6.0,3.0,5.2*3E
$GLGSA,A,3,84,,,,,,,,,,,,0.0,0.0,0.0*22
$GAGSA,A,3,07,,,,,,,,,,,,0.0,0.0,0.0*24
$GPGSV,2,1,06,10,19,249,38,15,66,086,49,20,36,274,37,25,31,209,36,1*62
$GPGSV,2,2,06,29,76,006,46,41,74,152,50,,,,,,,,,1*69
$GLGSV,1,1,01,84,49,072,43,,,,,,,,,,,,,1*4A
$GAGSV,1,1,01,07,88,235,43,,,,,,,,,,,,,7*46
$GNGST,111513.40,0.075,,,,0.143,0.184,0.566*69
$GNVTG,189.90,T,,M,2.18,N,4.04,K,A*21
$GNRMC,111513.60,A,1221.4990999,N,07635.7615411,E,2.06,190.31,270718,,,D*4B
$GNGGA,111513.60,1221.4990999,N,07635.7615411,E,5,04,1.2,786.679,M,-88.379,M,0.6,*73
$GPGSA,A,3,10,15,25,29,41,,,,,,,,6.5,3.4,5.5*3A
$GLGSA,A,3,84,,,,,,,,,,,,0.0,0.0,0.0*22
$GAGSA,A,3,07,,,,,,,,,,,,0.0,0.0,0.0*24
$GPGSV,2,1,05,10,19,249,38,15,66,086,49,25,31,209,38,29,76,006,46,1*63
$GPGSV,2,2,05,41,74,152,50,,,,,,,,,,,,,1*54
$GLGSV,1,1,01,84,49,072,43,,,,,,,,,,,,,1*4A
$GAGSV,1,1,01,07,88,235,42,,,,,,,,,,,,,7*47
$GNGST,111513.60,0.118,,,,0.143,0.185,0.565*63
$GNVTG,190.31,T,,M,2.06,N,3.82,K,A*24
$GNRMC,111513.80,A,1221.4989708,N,07635.7615346,E,2.31,181.01,270718,,,D*49
$GNGGA,111513.80,1221.4989708,N,07635.7615346,E,5,05,1.1,786.721,M,-88.379,M,0.8,*76
$GPGSA,A,3,10,15,20,25,29,40,41,,,,,,4.0,2.2,3.4*3B
$GLGSA,A,3,84,,,,,,,,,,,,0.0,0.0,0.0*22
$GAGSA,A,3,07,,,,,,,,,,,,0.0,0.0,0.0*24
$GPGSV,2,1,07,10,19,249,38,15,66,086,50,20,36,274,38,25,31,209,35,1*67
$GPGSV,2,2,07,29,76,006,47,40,61,241,35,41,74,152,50,,,,,1*5B
$GLGSV,1,1,01,84,49,072,40,,,,,,,,,,,,,1*49
$GAGSV,1,1,01,07,88,235,43,,,,,,,,,,,,,7*46
$GNGST,111513.80,0.150,,,,0.143,0.185,0.564*60
$GNVTG,181.01,T,,M,2.31,N,4.28,K,A*24
$GNRMC,111514.00,A,1221.4988507,N,07635.7615245,E,2.33,186.20,270718,,,D*4E
$GNGGA,111514.00,1221.4988507,N,07635.7615245,E,5,05,1.1,786.694,M,-88.379,M,1.0,*71
$GPGSA,A,3,10,15,20,29,40,41,,,,,,,4.4,2.8,3.4*32
$GLGSA,A,3,84,,,,,,,,,,,,0.0,0.0,0.0*22
$GAGSA,A,3,07,,,,,,,,,,,,0.0,0.0,0.0*24
$GPGSV,2,1,06,10,19,249,41,15,66,086,50,20,36,274,39,29,76,006,46,1*6F
$GPGSV,2,2,06,40,61,241,37,41,74,152,50,,,,,,,,,1*67
$GLGSV,1,1,01,84,49,072,43,,,,,,,,,,,,,1*4A
$GAGSV,1,1,01,07,88,235,43,,,,,,,,,,,,,7*46
$GNGST,111514.00,0.099,,,,0.143,0.185,0.562*6D
$GNVTG,186.20,T,,M,2.33,N,4.32,K,A*29
$GNRMC,111514.20,A,1221.4987291,N,07635.7615279,E,2.00,166.05,270718,,,D*4D
$GNGGA,111514.20,1221.4987291,N,07635.7615279,E,5,05,1.1,786.774,M,-88.379,M,1.2,*76
$GPGSA,A,3,10,15,20,29,40,41,,,,,,,4.4,2.8,3.4*32
$GLGSA,A,3,84,,,,,,,,,,,,0.0,0.0,0.0*22
$GAGSA,A,3,07,,,,,,,,,,,,0.0,0.0,0.0*24
$GPGSV,2,1,06,10,19,249,43,15,66,086,50,20,36,274,36,29,76,006,45,1*61
$GPGSV,2,2,06,40,61,241,35,41,74,152,50,,,,,,,,,1*65
$GLGSV,1,1,01,84,49,072,42,,,,,,,,,,,,,1*4B
$GAGSV,1,1,01,07,88,235,43,,,,,,,,,,,,,7*46
$GNGST,111514.20,0.068,,,,0.143,0.184,0.561*63
$GNVTG,166.05,T,,M,2.00,N,3.71,K,A*20
$GNRMC,111514.40,A,1221.4986622,N,07635.7615263,E,0.92,,270718,,,D*5E
$GNGGA,111514.40,1221.4986622,N,07635.7615263,E,5,07,1.1,786.808,M,-88.379,M,0.4,*77
$GPGSA,A,3,10,15,20,25,29,40,41,,,,,,4.0,2.2,3.4*3B
$GLGSA,A,3,71,84,,,,,,,,,,,0.0,0.0,0.0*24
$GAGSA,A,3,07,,,,,,,,,,,,0.0,0.0,0.0*24
$GPGSV,2,1,07,10,19,249,43,15,66,086,50,20,36,274,36,25,31,209,38,1*68
$GPGSV,2,2,07,29,76,006,47,40,61,241,35,41,74,152,49,,,,,1*53
$GLGSV,1,1,02,71,48,229,36,84,49,072,40,,,,,,,,,1*7C
$GAGSV,1,1,01,07,88,235,42,,,,,,,,,,,,,7*47
$GNGST,111514.40,0.000,,,,0.143,0.184,0.559*60
$GNVTG,,T,,M,0.92,N,1.69,K,A*38
$GNRMC,111514.60,A,1221.4985619,N,07635.7615196,E,1.78,175.79,270718,,,D*48
$GNGGA,111514.60,1221.4985619,N,07635.7615196,E,5,08,1.1,786.927,M,-88.379,M,0.6,*76
$GPGSA,A,3,10,15,20,24,29,40,41,,,,,,3.2,2.3,2.3*38
$GLGSA,A,3,71,84,,,,,,,,,,,0.0,0.0,0.0*24
$GAGSA,A,3,07,,,,,,,,,,,,0.0,0.0,0.0*24
$GPGSV,2,1,07,10,19,249,44,15,66,086,50,20,36,274,38,24,16,146,36,1*63
$GPGSV,2,2,07,29,76,006,46,40,61,241,35,41,74,152,50,,,,,1*5A
$GLGSV,1,1,02,71,48,229,38,84,49,072,41,,,,,,,,,1*73
$GAGSV,1,1,01,07,88,235,42,,,,,,,,,,,,,7*47
$GNGST,111514.60,0.000,,,,0.142,0.183,0.555*68
$GNVTG,175.79,T,,M,1.78,N,3.29,K,A*28
$GNRMC,111514.80,A,1221.4984837,N,07635.7614986,E,0.85,,270718,,,D*5D
$GNGGA,111514.80,1221.4984837,N,07635.7614986,E,5,08,1.1,787.076,M,-88.379,M,0.8,*71
$GPGSA,A,3,10,15,20,24,29,41,,,,,,,4.4,3.0,3.2*3F
$GLGSA,A,3,71,84,,,,,,,,,,,0.0,0.0,0.0*24
$GAGSA,A,3,07,,,,,,,,,,,,0.0,0.0,0.0*24
$GPGSV,2,1,06,10,19,249,41,15,66,086,49,20,36,274,37,24,16,146,38,1*6E
$GPGSV,2,2,06,29,76,006,48,41,74,152,49,,,,,,,,,1*6F
$GLGSV,1,1,02,71,48,229,38,84,49,072,41,,,,,,,,,1*73
$GAGSV,1,1,01,07,88,235,42,,,,,,,,,,,,,7*47
$GNGST,111514.80,0.000,,,,0.141,0.182,0.552*63
$GNVTG,,T,,M,0.85,N,1.57,K,A*33
$GNRMC,111515.00,A,1221.4984307,N,07635.7614820,E,0.46,,270718,,,D*5E
$GNGGA,111515.00,1221.4984307,N,07635.7614820,E,5,07,1.1,787.182,M,-88.379,M,1.0,*71
$GPGSA,A,3,10,15,24,29,41,,,,,,,,4.6,3.1,3.3*3F
$GLGSA,A,3,71,84,,,,,,,,,,,0.0,0.0,0.0*24
$GAGSA,A,3,07,,,,,,,,,,,,0.0,0.0,0.0*24
$GPGSV,2,1,05,10,19,249,37,15,66,086,49,24,16,146,39,29,76,006,48,1*6F
$GPGSV,2,2,05,41,74,152,48,,,,,,,,,,,,,1*5D
$GLGSV,1,1,02,71,48,229,40,84,49,072,41,,,,,,,,,1*7C
$GAGSV,1,1,01,07,88,235,42,,,,,,,,,,,,,7*47
$GNGST,111515.00,0.000,,,,0.141,0.182,0.550*68
$GNVTG,,T,,M,0.46,N,0.84,K,A*33
$GNRMC,111515.20,A,1221.4983332,N,07635.7614989,E,2.52,148.95,270718,,,D*47
$GNGGA,111515.20,1221.4983332,N,07635.7614989,E,5,07,1.1,787.397,M,-88.379,M,1.2,*74
$GPGSA,A,3,15,20,24,25,29,40,41,,,,,,3.0,1.8,2.3*34
$GLGSA,A,3,71,84,,,,,,,,,,,0.0,0.0,0.0*24
$GAGSA,A,3,07,,,,,,,,,,,,0.0,0.0,0.0*24
$GPGSV,2,1,07,15,66,086,49,20,36,274,37,24,16,146,37,25,31,209,40,1*69
$GPGSV,2,2,07,29,76,006,47,40,61,241,36,41,74,152,47,,,,,1*5E
$GLGSV,1,1,02,71,48,229,40,84,49,072,42,,,,,,,,,1*7F
$GAGSV,1,1,01,07,88,235,43,,,,,,,,,,,,,7*46
$GNGST,111515.20,0.000,,,,0.141,0.181,0.547*6F
$GNVTG,148.95,T,,M,2.52,N,4.66,K,A*23
$GNRMC,111515.40,A,1221.4982379,N,07635.7615433,E,2.59,139.14,270718,,,D*46
$GNGGA,111515.40,1221.4982379,N,07635.7615433,E,5,07,1.1,787.814,M,-88.379,M,1.4,*77
$GPGSA,A,3,15,24,25,29,40,41,,,,,,,5.2,3.1,4.1*3D
$GLGSA,A,3,71,84,,,,,,,,,,,0.0,0.0,0.0*24
$GAGSA,A,3,07,,,,,,,,,,,,0.0,0.0,0.0*24
$GPGSV,2,1,06,15,66,086,48,24,16,146,37,25,31,209,38,29,76,006,47,1*6B
$GPGSV,2,2,06,40,61,241,38,41,74,152,45,,,,,,,,,1*6C
$GLGSV,1,1,02,71,48,229,39,84,49,072,41,,,,,,,,,1*72
$GAGSV,1,1,01,07,88,235,42,,,,,,,,,,,,,7*47
$GNGST,111515.40,0.000,,,,0.141,0.181,0.547*69
$GNVTG,139.14,T,,M,2.59,N,4.79,K,A*29
$GNRMC,111515.60,A,1221.4981318,N,07635.7616025,E,2.62,151.64,270718,,,D*41
$GNGGA,111515.60,1221.4981318,N,07635.7616025,E,5,05,1.2,788.116,M,-88.379,M,0.6,*77
$GPGSA,A,3,15,25,29,41,,,,,,,,,7.9,4.2,6.8*39
$GLGSA,A,3,71,84,,,,,,,,,,,0.0,0.0,0.0*24
$GAGSA,A,3,07,,,,,,,,,,,,0.0,0.0,0.0*24
$GPGSV,1,1,04,15,66,086,49,25,31,209,42,29,76,006,46,41,74,152,46,1*63
$GLGSV,1,1,02,71,48,229,40,84,49,072,39,,,,,,,,,1*73
$GAGSV,1,1,01,07,88,235,42,,,,,,,,,,,,,7*47
$GNGST,111515.60,0.033,,,,0.141,0.182,0.556*68
$GNVTG,151.64,T,,M,2.62,N,4.86,K,A*28
$GNRMC,111515.80,A,1221.4980382,N,07635.7616556,E,2.27,147.93,270718,,,D*42
$GNGGA,111515.80,1221.4980382,N,07635.7616556,E,5,06,1.2,788.700,M,-88.379,M,0.8,*76
$GPGSA,A,3,15,24,25,29,41,,,,,,,,5.2,3.2,4.1*3A
$GLGSA,A,3,71,84,,,,,,,,,,,0.0,0.0,0.0*24
$GAGSA,A,3,07,,,,,,,,,,,,0.0,0.0,0.0*24
$GPGSV,2,1,05,15,66,086,49,24,16,146,38,25,31,209,40,29,76,006,47,1*69
$GPGSV,2,2,05,41,74,152,46,,,,,,,,,,,,,1*53
$GLGSV,1,1,02,71,48,229,40,84,49,072,42,,,,,,,,,1*7F
$GAGSV,1,1,01,07,88,236,43,,,,,,,,,,,,,7*45
$GNGST,111515.80,0.000,,,,0.140,0.182,0.547*67
$GNVTG,147.93,T,,M,2.27,N,4.21,K,A*2B
$GNRMC,111516.00,A,1221.4979279,N,07635.7617213,E,2.58,152.52,270718,,,D*4C
$GNGGA,111516.00,1221.4979279,N,07635.7617213,E,5,05,1.3,789.236,M,-88.379,M,1.0,*73
$GPGSA,A,3,15,29,41,,,,,,,,,,0.0,0.0,0.0*38
$GLGSA,A,3,71,84,,,,,,,,,,,0.0,0.0,0.0*24
$GAGSA,A,3,07,,,,,,,,,,,,0.0,0.0,0.0*24
$GPGSV,1,1,03,15,66,086,49,29,76,006,49,41,74,152,47,,,,,1*52
$GLGSV,1,1,02,71,48,229,37,84,49,072,41,,,,,,,,,1*7C
$GAGSV,1,1,01,07,88,236,44,,,,,,,,,,,,,7*42
$GNGST,111516.00,0.050,,,,0.140,0.182,0.554*6B
$GNVTG,152.52,T,,M,2.58,N,4.78,K,A*26
$GNRMC,111516.20,A,1221.4978090,N,07635.7617518,E,2.74,173.65,270718,,,D*4F
$GNGGA,111516.20,1221.4978090,N,07635.7617518,E,5,05,1.3,789.565,M,-88.379,M,1.2,*7A
$GPGSA,A,3,15,29,41,,,,,,,,,,0.0,0.0,0.0*38
$GLGSA,A,3,71,84,,,,,,,,,,,0.0,0.0,0.0*24
$GAGSA,A,3,07,,,,,,,,,,,,0.0,0.0,0.0*24
$GPGSV,1,1,03,15,66,086,45,29,76,006,49,41,74,152,48,,,,,1*51
$GLGSV,1,1,02,71,48,229,39,84,49,072,41,,,,,,,,,1*72
$GAGSV,1,1,01,07,88,236,45,,,,,,,,,,,,,7*43
$GNGST,111516.20,0.006,,,,0.140,0.182,0.574*68
$GNVTG,173.65,T,,M,2.74,N,5.07,K,A*26
$GNRMC,111516.40,A,1221.4977153,N,07635.7617732,E,2.08,169.86,270718,,,D*4F
$GNGGA,111516.40,1221.4977153,N,07635.7617732,E,5,06,1.3,789.995,M,-88.379,M,0.4,*70
$GPGSA,A,3,15,24,25,29,41,,,,,,,,5.2,3.2,4.1*3A
$GLGSA,A,3,71,84,,,,,,,,,,,0.0,0.0,0.0*24
$GAGSA,A,3,07,,,,,,,,,,,,0.0,0.0,0.0*24
$GPGSV,2,1,05,15,66,086,45,24,16,146,36,25,31,209,39,29,76,006,48,1*6A
$GPGSV,2,2,05,41,74,152,45,,,,,,,,,,,,,1*50
$GLGSV,1,1,02,71,48,229,37,84,49,072,42,,,,,,,,,1*7F
$GAGSV,1,1,01,07,88,236,43,,,,,,,,,,,,,7*45
$GNGST,111516.40,0.085,,,,0.140,0.181,0.544*65
$GNVTG,169.86,T,,M,2.08,N,3.85,K,A*27
$GNRMC,111516.60,A,1221.4976827,N,07635.7618657,E,2.70,93.34,270718,,,D*79
$GNGGA,111516.60,1221.4976827,N,07635.7618657,E,5,04,1.3,790.393,M,-88.379,M,0.6,*70
$GPGSA,A,3,15,24,25,29,41,,,,,,,,5.2,3.2,4.1*3A
$GLGSA,A,3,84,,,,,,,,,,,,0.0,0.0,0.0*22
$GAGSA,A,3,07,,,,,,,,,,,,0.0,0.0,0.0*24
$GPGSV,2,1,05,15,66,086,42,24,16,146,36,25,31,209,37,29,76,006,49,1*62
$GPGSV,2,2,05,41,74,152,45,,,,,,,,,,,,,1*50
$GLGSV,1,1,01,84,49,072,41,,,,,,,,,,,,,1*48
